[
    {"id":1,"name":"Parking République","lat":49.116229,"lon":6.169006,"capacity":200,"available":200},
    {"id":2,"name":"Parking Centre Saint-Jacques","lat":49.1165,"lon":6.1823,"capacity":150,"available":50},
    {"id":3,"name":"Parking Pontiffroy","lat":49.1263,"lon":6.1721,"capacity":100,"available":10},
    {"id":4,"name":"Parking Saint-Symphorien","lat":49.1108,"lon":6.1765,"capacity":120,"available":80},
    {"id":5,"name":"Parking Saint-Thiébault","lat":49.1227,"lon":6.1675,"capacity":80,"available":0},
    {"id":6,"name":"Parking Paixhans","lat":49.121102,"lon":6.184541,"capacity":400,"available":95}
  ]
  