[
{"type":"header","version":"5.2.1","comment":"Export to JSON plugin for PHPMyAdmin"},
{"type":"database","name":"e98735u_SAE301"},
{"type":"table","name":"MobilityService","database":"e98735u_SAE301","data":
[
{"id":"1","stop_id":"0:JPJEAN2","stop_name":"JP JEAN","lat":"49.1257141","lon":"6.2173416"},
{"id":"2","stop_id":"0:WOI01","stop_name":"P+R WOIPPY","lat":"49.1503509","lon":"6.1733174"},
{"id":"3","stop_id":"0:FALOGNE2","stop_name":"FALOGNE","lat":"49.098218","lon":"6.2403288"},
{"id":"4","stop_id":"0:WOI02","stop_name":"P+R WOIPPY","lat":"49.1503146","lon":"6.1733288"},
{"id":"5","stop_id":"0:MAT02","stop_name":"MATERNITE","lat":"49.0821637","lon":"6.2390101"},
{"id":"6","stop_id":"0:HSCHUMA1","stop_name":"HOPITAL SCHUMAN","lat":"49.1232846","lon":"6.24213"},
{"id":"7","stop_id":"0:PEMG2","stop_name":"POLE MULTIMODAL","lat":"49.107093","lon":"6.1772056"},
{"id":"8","stop_id":"0:PREVILL1","stop_name":"PREVILLE","lat":"49.1022747","lon":"6.1050587"},
{"id":"9","stop_id":"0:FRENES1","stop_name":"FRENES","lat":"49.131799","lon":"6.2112061"},
{"id":"10","stop_id":"0:GAREAUG1","stop_name":"GARE D'AUGNY","lat":"49.0702409","lon":"6.1376125"},
{"id":"11","stop_id":"0:LADONCH2","stop_name":"LADONCHAMPS","lat":"49.1540654","lon":"6.1525015"},
{"id":"12","stop_id":"0:STBRICE2","stop_name":"ST-BRICE","lat":"49.0606319","lon":"6.1492456"},
{"id":"13","stop_id":"0:LADONCH1","stop_name":"LADONCHAMPS","lat":"49.1543292","lon":"6.15308"},
{"id":"14","stop_id":"0:GAREAUG2","stop_name":"GARE D'AUGNY","lat":"49.0701705","lon":"6.1375534"},
{"id":"15","stop_id":"0:POLY01","stop_name":"POLYGONE","lat":"49.0977929","lon":"6.1807876"},
{"id":"16","stop_id":"0:MIC02","stop_name":"JULES MICHELET","lat":"49.1076224","lon":"6.2285949"},
{"id":"17","stop_id":"0:MIC01","stop_name":"JULES MICHELET","lat":"49.1076954","lon":"6.2285583"},
{"id":"18","stop_id":"0:FALOGNE1","stop_name":"FALOGNE","lat":"49.0980035","lon":"6.2402742"},
{"id":"19","stop_id":"0:CHDAMES1","stop_name":"CHEMIN DES DAMES","lat":"49.1171886","lon":"6.087776"},
{"id":"20","stop_id":"0:FELIX376","stop_name":"FELIX MARECHAL","lat":"49.1291654","lon":"6.1378091"},
{"id":"21","stop_id":"0:CHDAMES2","stop_name":"CHEMIN DES DAMES","lat":"49.1169133","lon":"6.0883353"},
{"id":"22","stop_id":"0:STANDRE3","stop_name":"ST-ANDRE","lat":"49.095164","lon":"6.1590036"},
{"id":"23","stop_id":"0:STANDRE2","stop_name":"ST-ANDRE","lat":"49.0949136","lon":"6.1579195"},
{"id":"24","stop_id":"0:STANDRE1","stop_name":"ST-ANDRE","lat":"49.0960527","lon":"6.1590851"},
{"id":"25","stop_id":"0:MONTAG02","stop_name":"ST-PRIVAT MONTAGNE","lat":"49.1849303","lon":"6.0454263"},
{"id":"26","stop_id":"0:MONTAG01","stop_name":"ST-PRIVAT MONTAGNE","lat":"49.1848461","lon":"6.0444881"},
{"id":"27","stop_id":"0:PTICLOU2","stop_name":"PETIT CLOU","lat":"49.076013","lon":"6.1839716"},
{"id":"28","stop_id":"0:PTICLOU1","stop_name":"PETIT CLOU","lat":"49.0765517","lon":"6.1840184"},
{"id":"29","stop_id":"0:JERUSAL2","stop_name":"JERUSALEM","lat":"49.0918722","lon":"6.1671472"},
{"id":"30","stop_id":"0:JERUSAL1","stop_name":"JERUSALEM","lat":"49.0917877","lon":"6.1672791"},
{"id":"31","stop_id":"0:ERABLE1","stop_name":"ERABLES","lat":"49.1316567","lon":"6.2054106"},
{"id":"32","stop_id":"0:ERABLE2","stop_name":"ERABLES","lat":"49.131664","lon":"6.2051368"},
{"id":"33","stop_id":"0:PLAQUET2","stop_name":"LES PLAQUETTES","lat":"49.1692087","lon":"6.0512521"},
{"id":"34","stop_id":"0:PLAQUET1","stop_name":"LES PLAQUETTES","lat":"49.1690515","lon":"6.0514212"},
{"id":"35","stop_id":"0:SERRURR1","stop_name":"SERRURIERS","lat":"49.1182634","lon":"6.2401295"},
{"id":"36","stop_id":"0:STPAUL01","stop_name":"ST-PAUL","lat":"49.0833653","lon":"6.0870627"},
{"id":"37","stop_id":"0:SERRURR2","stop_name":"SERRURIERS","lat":"49.1186088","lon":"6.2400003"},
{"id":"38","stop_id":"0:STPAUL02","stop_name":"ST-PAUL","lat":"49.0831513","lon":"6.086639"},
{"id":"39","stop_id":"0:FALEE1","stop_name":"FALEE","lat":"49.1328915","lon":"6.2525912"},
{"id":"40","stop_id":"0:PLGAUL04","stop_name":"PLACE DE GAULLE","lat":"49.0601019","lon":"6.1625643"},
{"id":"41","stop_id":"0:FALEE2","stop_name":"FALEE","lat":"49.1328785","lon":"6.2530703"},
{"id":"42","stop_id":"0:ARSLAQU2","stop_name":"ARS LAQUENEXY","lat":"49.0928601","lon":"6.2703587"},
{"id":"43","stop_id":"0:RUEECO01","stop_name":"RUE DES ECOLES","lat":"49.1889281","lon":"6.0381807"},
{"id":"44","stop_id":"0:ARSLAQU1","stop_name":"ARS LAQUENEXY","lat":"49.0927773","lon":"6.2700931"},
{"id":"45","stop_id":"0:RUEECO02","stop_name":"RUE DES ECOLES","lat":"49.1887633","lon":"6.0379377"},
{"id":"46","stop_id":"0:ACACIAS2","stop_name":"ACACIAS","lat":"49.0732292","lon":"6.1844307"},
{"id":"47","stop_id":"0:ACACIAS1","stop_name":"ACACIAS","lat":"49.073443","lon":"6.1845123"},
{"id":"48","stop_id":"0:LMOULIN2","stop_name":"LES MOULINS","lat":"49.130021","lon":"6.2379169"},
{"id":"49","stop_id":"0:MIRABEL1","stop_name":"MIRABELLES","lat":"49.1311949","lon":"6.145885"},
{"id":"50","stop_id":"0:MIRABEL2","stop_name":"MIRABELLES","lat":"49.1305955","lon":"6.1454098"},
{"id":"51","stop_id":"0:ARENES2","stop_name":"ARENES","lat":"49.1058398","lon":"6.1735517"},
{"id":"52","stop_id":"0:ARENES1","stop_name":"ARENES","lat":"49.1060288","lon":"6.1735495"},
{"id":"53","stop_id":"0:PARKDU01","stop_name":"PARKING DUPUIS","lat":"49.1129518","lon":"6.1703549"},
{"id":"54","stop_id":"0:LMOULIN1","stop_name":"LES MOULINS","lat":"49.1299808","lon":"6.2374071"},
{"id":"55","stop_id":"0:MARCSAN2","stop_name":"MARC SANGNIER","lat":"49.0892442","lon":"6.1593004"},
{"id":"56","stop_id":"0:MARCSAN1","stop_name":"MARC SANGNIER","lat":"49.0893589","lon":"6.1593896"},
{"id":"57","stop_id":"0:HTRHELE1","stop_name":"HAUT-RHELE","lat":"49.0990656","lon":"6.1323278"},
{"id":"58","stop_id":"0:HTRHELE2","stop_name":"HAUT-RHELE","lat":"49.0990825","lon":"6.1323699"},
{"id":"59","stop_id":"0:BRIEYS01","stop_name":"BRIEY","lat":"49.1599795","lon":"6.1042948"},
{"id":"60","stop_id":"0:BRIEYS02","stop_name":"BRIEY","lat":"49.1608461","lon":"6.1031395"},
{"id":"61","stop_id":"0:ARSENAL2","stop_name":"ARSENAL","lat":"49.1228317","lon":"6.1870414"},
{"id":"62","stop_id":"0:VACQUI02","stop_name":"VACQUINIERE","lat":"49.1066444","lon":"6.1587167"},
{"id":"63","stop_id":"0:ARSENAL1","stop_name":"ARSENAL","lat":"49.1229503","lon":"6.1869801"},
{"id":"64","stop_id":"0:VACQUI01","stop_name":"VACQUINIERE","lat":"49.106426","lon":"6.1581277"},
{"id":"65","stop_id":"0:VEZON1","stop_name":"VEZON","lat":"49.0065511","lon":"6.0948609"},
{"id":"66","stop_id":"0:PLALBLA1","stop_name":"PLACE ALBERT-LAS","lat":"49.1024301","lon":"6.1820316"},
{"id":"67","stop_id":"0:PLALBLA2","stop_name":"PLACE ALBERT-LAS","lat":"49.1025326","lon":"6.1819008"},
{"id":"68","stop_id":"0:SAR01","stop_name":"SARRE","lat":"49.1145635","lon":"6.231824"},
{"id":"69","stop_id":"0:SAR02","stop_name":"SARRE","lat":"49.1147111","lon":"6.2336975"},
{"id":"70","stop_id":"0:CAMELIA1","stop_name":"CAMELIAS","lat":"49.0659738","lon":"6.1596493"},
{"id":"71","stop_id":"0:GUY01","stop_name":"GUYENNE","lat":"49.1114287","lon":"6.2188669"},
{"id":"72","stop_id":"0:FRENES2","stop_name":"FRENES","lat":"49.1319925","lon":"6.2117118"},
{"id":"73","stop_id":"0:GUY02","stop_name":"GUYENNE","lat":"49.1115792","lon":"6.2189585"},
{"id":"74","stop_id":"0:VEZON2","stop_name":"VEZON","lat":"49.006519","lon":"6.0947085"},
{"id":"75","stop_id":"0:PRENET1","stop_name":"PRE NET","lat":"49.0811992","lon":"6.3080919"},
{"id":"76","stop_id":"0:PTCOEUR1","stop_name":"PETIT COEUR","lat":"49.1661099","lon":"6.0403811"},
{"id":"77","stop_id":"0:PRENET2","stop_name":"PRE NET","lat":"49.0811225","lon":"6.3082651"},
{"id":"78","stop_id":"0:COUBERT1","stop_name":"COUBERTIN","lat":"49.0918472","lon":"6.1447984"},
{"id":"79","stop_id":"0:COUBERT2","stop_name":"COUBERTIN","lat":"49.0921347","lon":"6.1448158"},
{"id":"80","stop_id":"0:PEUMONT2","stop_name":"PEUMONT","lat":"49.0768143","lon":"6.2321419"},
{"id":"81","stop_id":"0:HTWOICO1","stop_name":"HAUT DE WOICON","lat":"49.1327757","lon":"6.1353128"},
{"id":"82","stop_id":"0:SANSONN2","stop_name":"SANSONNET","lat":"49.1364734","lon":"6.1470422"},
{"id":"83","stop_id":"0:SANSONN1","stop_name":"SANSONNET","lat":"49.1362974","lon":"6.1472372"},
{"id":"84","stop_id":"0:PEUMONT1","stop_name":"PEUMONT","lat":"49.0766994","lon":"6.2320662"},
{"id":"85","stop_id":"0:PAQUERE1","stop_name":"PAQUERETTES","lat":"49.0944002","lon":"6.123852"},
{"id":"86","stop_id":"0:CHENOIR2","stop_name":"CHEMIN NOIR","lat":"49.1141784","lon":"6.0981099"},
{"id":"87","stop_id":"0:PAQUERE2","stop_name":"PAQUERETTES","lat":"49.0944293","lon":"6.1237715"},
{"id":"88","stop_id":"0:BUCHOZ2","stop_name":"BUCHOZ","lat":"49.1353701","lon":"6.1496629"},
{"id":"89","stop_id":"0:HSORET1","stop_name":"HAUT SORET","lat":"49.1350219","lon":"6.213847"},
{"id":"90","stop_id":"0:BUCHOZ1","stop_name":"BUCHOZ","lat":"49.1353787","lon":"6.1493343"},
{"id":"91","stop_id":"0:HSORET2","stop_name":"HAUT SORET","lat":"49.1355858","lon":"6.2136214"},
{"id":"92","stop_id":"0:CHENOIR1","stop_name":"CHEMIN NOIR","lat":"49.1141823","lon":"6.0979593"},
{"id":"93","stop_id":"0:LACROIX1","stop_name":"LA CROIX","lat":"49.1290346","lon":"6.1303971"},
{"id":"94","stop_id":"0:RUCHER1","stop_name":"RUCHER","lat":"49.144801","lon":"6.147905"},
{"id":"95","stop_id":"0:RUCHER2","stop_name":"RUCHER","lat":"49.1451132","lon":"6.1480063"},
{"id":"96","stop_id":"0:DUCROCQ1","stop_name":"DUCROCQ","lat":"49.1013962","lon":"6.1884502"},
{"id":"97","stop_id":"0:LILAS3","stop_name":"LILAS","lat":"49.095481","lon":"6.1434842"},
{"id":"98","stop_id":"0:DUCROCQ2","stop_name":"DUCROCQ","lat":"49.1013348","lon":"6.1883916"},
{"id":"99","stop_id":"0:FRONTIG1","stop_name":"FRONTIGNY","lat":"49.0585193","lon":"6.2640851"},
{"id":"100","stop_id":"0:LILAS4","stop_name":"LILAS","lat":"49.095509","lon":"6.1437873"},
{"id":"101","stop_id":"0:CHA01","stop_name":"DOCTEUR CHARCOT","lat":"49.1483314","lon":"6.1669799"},
{"id":"102","stop_id":"0:CHA02","stop_name":"DOCTEUR CHARCOT","lat":"49.1484909","lon":"6.167072"},
{"id":"103","stop_id":"0:COL01","stop_name":"COLOMBEY","lat":"49.1108465","lon":"6.2305092"},
{"id":"104","stop_id":"0:COL02","stop_name":"COLOMBEY","lat":"49.1109517","lon":"6.2306117"},
{"id":"105","stop_id":"0:FRONTIG2","stop_name":"FRONTIGNY","lat":"49.0585638","lon":"6.263773"},
{"id":"106","stop_id":"0:TOURAIN2","stop_name":"TOURAINE","lat":"49.0951287","lon":"6.1373379"},
{"id":"107","stop_id":"0:TOURAIN1","stop_name":"TOURAINE","lat":"49.0955705","lon":"6.13868"},
{"id":"108","stop_id":"0:MALMAIS1","stop_name":"MALMAISON","lat":"49.1249596","lon":"6.0170038"},
{"id":"109","stop_id":"0:OBERL193","stop_name":"OBERLING","lat":"49.1032563","lon":"6.202763"},
{"id":"110","stop_id":"0:HAMEAUX2","stop_name":"LES HAMEAUX","lat":"49.0598797","lon":"6.1412031"},
{"id":"111","stop_id":"0:HAMEAUX1","stop_name":"LES HAMEAUX","lat":"49.060008","lon":"6.141115"},
{"id":"112","stop_id":"0:MALMAIS2","stop_name":"MALMAISON","lat":"49.1250968","lon":"6.0172723"},
{"id":"113","stop_id":"0:PORTALL1","stop_name":"PORTE DES ALLEMANDS","lat":"49.1177238","lon":"6.1842048"},
{"id":"114","stop_id":"0:SEI01","stop_name":"SEILLE","lat":"49.1117398","lon":"6.1859067"},
{"id":"115","stop_id":"0:SEI02","stop_name":"SEILLE","lat":"49.1116523","lon":"6.1854764"},
{"id":"116","stop_id":"0:CHAULME2","stop_name":"LES CHAULMES","lat":"49.1337173","lon":"6.2758736"},
{"id":"117","stop_id":"0:CHAULME1","stop_name":"LES CHAULMES","lat":"49.1337735","lon":"6.276124"},
{"id":"118","stop_id":"0:CTU02","stop_name":"CITE U","lat":"49.1199905","lon":"6.1596813"},
{"id":"119","stop_id":"0:CTU01","stop_name":"CITE U","lat":"49.1203175","lon":"6.1595642"},
{"id":"120","stop_id":"0:MERMAT01","stop_name":"MERCY MATERNITE","lat":"49.0850037","lon":"6.2374751"},
{"id":"121","stop_id":"0:MERMAT02","stop_name":"MERCY MATERNITE","lat":"49.0850875","lon":"6.2373707"},
{"id":"122","stop_id":"0:LELAC1","stop_name":"LE LAC","lat":"49.0964078","lon":"6.2383793"},
{"id":"123","stop_id":"0:TOURNEB1","stop_name":"TOURNEBRIDE","lat":"49.0855135","lon":"6.1136582"},
{"id":"124","stop_id":"0:OBERL183","stop_name":"OBERLING","lat":"49.1032452","lon":"6.2025019"},
{"id":"125","stop_id":"0:TANNEUR2","stop_name":"TANNEURS","lat":"49.1201081","lon":"6.1842142"},
{"id":"126","stop_id":"0:TANNEUR1","stop_name":"TANNEURS","lat":"49.1194338","lon":"6.1818148"},
{"id":"127","stop_id":"0:TREIZE1","stop_name":"TREIZE","lat":"49.1101319","lon":"6.1895361"},
{"id":"128","stop_id":"0:ROSEGON1","stop_name":"ROSE GONTHIER","lat":"49.1032353","lon":"6.2434795"},
{"id":"129","stop_id":"0:ROSEGON2","stop_name":"ROSE GONTHIER","lat":"49.1033875","lon":"6.2431738"},
{"id":"130","stop_id":"0:QUOITY1","stop_name":"LE QUOITY","lat":"49.1232774","lon":"6.094884"},
{"id":"131","stop_id":"0:POMMERA2","stop_name":"LA POMMERAIE","lat":"49.0335885","lon":"6.1619885"},
{"id":"132","stop_id":"0:GENDARM1","stop_name":"GENDARMERIE","lat":"49.1047567","lon":"6.1994705"},
{"id":"133","stop_id":"0:POMMERA1","stop_name":"LA POMMERAIE","lat":"49.0334786","lon":"6.1624061"},
{"id":"134","stop_id":"0:GENDARM2","stop_name":"GENDARMERIE","lat":"49.104569","lon":"6.1997604"},
{"id":"135","stop_id":"0:MAZELLE1","stop_name":"MAZELLE","lat":"49.1141267","lon":"6.182421"},
{"id":"136","stop_id":"0:MIGETTE2","stop_name":"MIGETTE","lat":"49.1140027","lon":"6.1385356"},
{"id":"137","stop_id":"0:FOCH2","stop_name":"FOCH","lat":"49.1209069","lon":"6.1484133"},
{"id":"138","stop_id":"0:MIGETTE1","stop_name":"MIGETTE","lat":"49.1140944","lon":"6.139158"},
{"id":"139","stop_id":"0:CLMADER1","stop_name":"CLEMENT ADER","lat":"49.0893087","lon":"6.1496452"},
{"id":"140","stop_id":"0:FOCH1","stop_name":"FOCH","lat":"49.1207704","lon":"6.1484736"},
{"id":"141","stop_id":"0:PON01","stop_name":"PONTIFFROY","lat":"49.1270597","lon":"6.1748382"},
{"id":"142","stop_id":"0:PON02","stop_name":"PONTIFFROY","lat":"49.1272358","lon":"6.1749861"},
{"id":"143","stop_id":"0:SERPEN01","stop_name":"RUE SERPENOISE","lat":"49.1171624","lon":"6.1754928"},
{"id":"144","stop_id":"0:CLMADER2","stop_name":"CLEMENT ADER","lat":"49.0893572","lon":"6.1495111"},
{"id":"145","stop_id":"0:MAZELLE2","stop_name":"MAZELLE","lat":"49.1149778","lon":"6.1849407"},
{"id":"146","stop_id":"0:CASERNE1","stop_name":"CASERNE","lat":"49.1250417","lon":"6.1803769"},
{"id":"147","stop_id":"0:CHARDIN2","stop_name":"DE CHARDIN","lat":"49.1440744","lon":"6.1721372"},
{"id":"148","stop_id":"0:CHARDIN1","stop_name":"DE CHARDIN","lat":"49.1445226","lon":"6.1718629"},
{"id":"149","stop_id":"0:COLSON2","stop_name":"COLSON","lat":"49.0898563","lon":"6.1661335"},
{"id":"150","stop_id":"0:CUVRY1","stop_name":"CUVRY","lat":"49.0429232","lon":"6.1588067"},
{"id":"151","stop_id":"0:ABBEBAU1","stop_name":"ABBE BAUZIN","lat":"49.1891175","lon":"6.0353093"},
{"id":"152","stop_id":"0:CUVRY2","stop_name":"CUVRY","lat":"49.0429232","lon":"6.1588067"},
{"id":"153","stop_id":"0:PLAPEVI1","stop_name":"PLAPPEVILLE","lat":"49.1305295","lon":"6.1244681"},
{"id":"154","stop_id":"0:FEI01","stop_name":"FEIVRES","lat":"49.114725","lon":"6.239867"},
{"id":"155","stop_id":"0:ROU01","stop_name":"EMILE ROUX","lat":"49.1446421","lon":"6.1663016"},
{"id":"156","stop_id":"0:ROU02","stop_name":"EMILE ROUX","lat":"49.144812","lon":"6.1663395"},
{"id":"157","stop_id":"0:INTJOBA1","stop_name":"INTENDANTS JOBA","lat":"49.1416783","lon":"6.1650644"},
{"id":"158","stop_id":"0:INTJOBA2","stop_name":"INTENDANTS JOBA","lat":"49.1411281","lon":"6.1657987"},
{"id":"159","stop_id":"0:FEI02","stop_name":"FEIVRES","lat":"49.114796","lon":"6.2385692"},
{"id":"160","stop_id":"0:TIGNO290","stop_name":"TIGNOMONT","lat":"49.1262134","lon":"6.1594851"},
{"id":"161","stop_id":"0:GARCE","stop_name":"GARE","lat":"49.1112353","lon":"6.1770896"},
{"id":"162","stop_id":"0:SEBASTO1","stop_name":"SEBASTOPOL","lat":"49.1078923","lon":"6.2376305"},
{"id":"163","stop_id":"0:SEBASTO2","stop_name":"SEBASTOPOL","lat":"49.107589","lon":"6.2392015"},
{"id":"164","stop_id":"0:PINOTSM2","stop_name":"PINOTS MELES","lat":"49.1343715","lon":"6.2716775"},
{"id":"165","stop_id":"0:BEAUSOL2","stop_name":"BEAUSOLEIL","lat":"49.0755869","lon":"6.1864658"},
{"id":"166","stop_id":"0:PINOTSM1","stop_name":"PINOTS MELES","lat":"49.134573","lon":"6.270552"},
{"id":"167","stop_id":"0:BEAUSOL1","stop_name":"BEAUSOLEIL","lat":"49.0758239","lon":"6.1873707"},
{"id":"168","stop_id":"0:VERNEVI1","stop_name":"VERNEVILLE","lat":"49.1452615","lon":"6.0053498"},
{"id":"169","stop_id":"0:VERNEVI2","stop_name":"VERNEVILLE","lat":"49.1450446","lon":"6.0057486"},
{"id":"170","stop_id":"0:GARCS","stop_name":"GARE","lat":"49.1107714","lon":"6.1769378"},
{"id":"171","stop_id":"0:BELFONT2","stop_name":"BELLE FONTAINE","lat":"49.0669469","lon":"6.1427953"},
{"id":"172","stop_id":"0:ABBEBAU2","stop_name":"ABBE BAUZIN","lat":"49.1891337","lon":"6.0364495"},
{"id":"173","stop_id":"0:BELFONT1","stop_name":"BELLE FONTAINE","lat":"49.0668779","lon":"6.1426815"},
{"id":"174","stop_id":"0:GRA02","stop_name":"GRAHAM BELL","lat":"49.1052069","lon":"6.2233733"},
{"id":"175","stop_id":"0:COLSON1","stop_name":"COLSON","lat":"49.0903956","lon":"6.1664953"},
{"id":"176","stop_id":"0:GRA01","stop_name":"GRAHAM BELL","lat":"49.1050003","lon":"6.2233605"},
{"id":"177","stop_id":"0:PUYMAIG1","stop_name":"PUYMAIGRE","lat":"49.1070963","lon":"6.1947356"},
{"id":"178","stop_id":"0:MUSE01","stop_name":"MUSE","lat":"49.1059501","lon":"6.181631"},
{"id":"179","stop_id":"0:MUSE02","stop_name":"MUSE","lat":"49.105745","lon":"6.1815636"},
{"id":"180","stop_id":"0:SLIVIER2","stop_name":"ST-LIVIER","lat":"49.1008941","lon":"6.1751263"},
{"id":"181","stop_id":"0:CHMA1","stop_name":"CHATEL MAIRIE","lat":"49.1222075","lon":"6.0815359"},
{"id":"182","stop_id":"0:SLIVIER1","stop_name":"ST-LIVIER","lat":"49.1003251","lon":"6.1755436"},
{"id":"183","stop_id":"0:ARP309","stop_name":"AUBEPINE","lat":"49.07234","lon":"6.1931831"},
{"id":"184","stop_id":"0:LOTHAIR4","stop_name":"LOTHAIRE","lat":"49.1003324","lon":"6.1810531"},
{"id":"185","stop_id":"0:LOTHAIR3","stop_name":"LOTHAIRE","lat":"49.1003107","lon":"6.181874"},
{"id":"186","stop_id":"0:MARRONN2","stop_name":"MARRONNIERS","lat":"49.1344059","lon":"6.2153447"},
{"id":"187","stop_id":"0:LOTHAIR5","stop_name":"LOTHAIRE","lat":"49.1005259","lon":"6.1819009"},
{"id":"188","stop_id":"0:MARRONN1","stop_name":"MARRONNIERS","lat":"49.1339674","lon":"6.2155917"},
{"id":"189","stop_id":"0:SOLIDAR2","stop_name":"SOLIDARITE","lat":"49.1077579","lon":"6.2432829"},
{"id":"190","stop_id":"0:VOLO1","stop_name":"VOLO","lat":"49.1255665","lon":"6.2070355"},
{"id":"191","stop_id":"0:COTEAUX2","stop_name":"COTEAUX","lat":"49.1545664","lon":"6.1481422"},
{"id":"192","stop_id":"0:VOLO2","stop_name":"VOLO","lat":"49.1252775","lon":"6.2064006"},
{"id":"193","stop_id":"0:COTEAUX1","stop_name":"COTEAUX","lat":"49.1546969","lon":"6.1479718"},
{"id":"194","stop_id":"0:SOLIDAR1","stop_name":"SOLIDARITE","lat":"49.1080861","lon":"6.2431253"},
{"id":"195","stop_id":"0:VOLO3","stop_name":"VOLO","lat":"49.1253404","lon":"6.2070764"},
{"id":"196","stop_id":"0:MARLY2","stop_name":"MARLY","lat":"49.0610094","lon":"6.166714"},
{"id":"197","stop_id":"0:MARLY1","stop_name":"MARLY","lat":"49.0610094","lon":"6.166714"},
{"id":"198","stop_id":"0:VALMETZ1","stop_name":"VAL DE METZ","lat":"49.0932711","lon":"6.0934073"},
{"id":"199","stop_id":"0:VALMETZ2","stop_name":"VAL DE METZ","lat":"49.0933655","lon":"6.0925361"},
{"id":"200","stop_id":"0:BOTANIQ1","stop_name":"BOTANIQUE","lat":"49.1036225","lon":"6.162082"},
{"id":"201","stop_id":"0:ROEDERE1","stop_name":"ROEDERER","lat":"49.0978757","lon":"6.202403"},
{"id":"202","stop_id":"0:BOTANIQ2","stop_name":"BOTANIQUE","lat":"49.1037411","lon":"6.1620207"},
{"id":"203","stop_id":"0:ROEDERE2","stop_name":"ROEDERER","lat":"49.0985664","lon":"6.2035009"},
{"id":"204","stop_id":"0:CHEVROT1","stop_name":"CHEVROTTES","lat":"49.0927248","lon":"6.2743376"},
{"id":"205","stop_id":"0:CHEVROT2","stop_name":"CHEVROTTES","lat":"49.0926892","lon":"6.2746506"},
{"id":"206","stop_id":"0:REPLYD","stop_name":"REPUBLIQUE","lat":"49.114481","lon":"6.1720797"},
{"id":"207","stop_id":"0:VERGERS1","stop_name":"VERGERS","lat":"49.1022972","lon":"6.1464056"},
{"id":"208","stop_id":"0:REPLYA","stop_name":"REPUBLIQUE","lat":"49.1144389","lon":"6.1723101"},
{"id":"209","stop_id":"0:RUELLCH1","stop_name":"RUELLE CHENEAU","lat":"49.1150722","lon":"6.1969821"},
{"id":"210","stop_id":"0:RUELLCH2","stop_name":"RUELLE CHENEAU","lat":"49.1151028","lon":"6.1978613"},
{"id":"211","stop_id":"0:RONC4","stop_name":"RONCOURT","lat":"49.2036605","lon":"6.049756"},
{"id":"212","stop_id":"0:STEXUPE1","stop_name":"ST-EXUPERY","lat":"49.0863844","lon":"6.1544407"},
{"id":"213","stop_id":"0:ALIZES1","stop_name":"LES ALIZES","lat":"49.0621353","lon":"6.1375329"},
{"id":"214","stop_id":"0:STEXUPE2","stop_name":"ST-EXUPERY","lat":"49.0865738","lon":"6.1540823"},
{"id":"215","stop_id":"0:VERGERS2","stop_name":"VERGERS","lat":"49.1019077","lon":"6.1461626"},
{"id":"216","stop_id":"0:AUBIGNY1","stop_name":"AUBIGNY","lat":"49.094184","lon":"6.26999"},
{"id":"217","stop_id":"0:LYAUT104","stop_name":"LYAUTEY","lat":"49.0935403","lon":"6.1680439"},
{"id":"218","stop_id":"0:CHAPELL1","stop_name":"CHAPELLE","lat":"49.1416717","lon":"6.1160339"},
{"id":"219","stop_id":"0:CLAUDEL1","stop_name":"CLAUDEL","lat":"49.101719","lon":"6.1996666"},
{"id":"220","stop_id":"0:LASSAUX2","stop_name":"LASSAUX","lat":"49.116287","lon":"6.0979892"},
{"id":"221","stop_id":"0:CHAPELL2","stop_name":"CHAPELLE","lat":"49.1417756","lon":"6.1151488"},
{"id":"222","stop_id":"0:LASSAUX1","stop_name":"LASSAUX","lat":"49.1161899","lon":"6.0979149"},
{"id":"223","stop_id":"0:CLAUDEL2","stop_name":"CLAUDEL","lat":"49.1015892","lon":"6.1987953"},
{"id":"224","stop_id":"0:BAZIN1","stop_name":"BAZIN","lat":"49.1088321","lon":"6.0876754"},
{"id":"225","stop_id":"0:GARGE","stop_name":"GARE","lat":"49.1103847","lon":"6.1752281"},
{"id":"226","stop_id":"0:STREMY1","stop_name":"ST-REMY","lat":"49.1737638","lon":"6.1620179"},
{"id":"227","stop_id":"0:LAUVALL1","stop_name":"LAUVALLIERES","lat":"49.1240425","lon":"6.2600289"},
{"id":"228","stop_id":"0:STREMY2","stop_name":"ST-REMY","lat":"49.1738637","lon":"6.1623259"},
{"id":"229","stop_id":"0:LAUVALL2","stop_name":"LAUVALLIERES","lat":"49.1241615","lon":"6.2599541"},
{"id":"230","stop_id":"0:JURY2","stop_name":"JURY","lat":"49.0696393","lon":"6.2535814"},
{"id":"231","stop_id":"0:BOR02","stop_name":"LES BORDES","lat":"49.1144404","lon":"6.2209869"},
{"id":"232","stop_id":"0:BOR01","stop_name":"LES BORDES","lat":"49.1143865","lon":"6.2209835"},
{"id":"233","stop_id":"0:GARGS","stop_name":"GARE","lat":"49.1100655","lon":"6.1757294"},
{"id":"234","stop_id":"0:CITSNCF2","stop_name":"CITE SNCF","lat":"49.0906134","lon":"6.1272546"},
{"id":"235","stop_id":"0:HAMJER03","stop_name":"HAMEAU JERUSALEM","lat":"49.1861083","lon":"6.0383308"},
{"id":"236","stop_id":"0:HAMJER04","stop_name":"HAMEAU JERUSALEM","lat":"49.1861515","lon":"6.0387589"},
{"id":"237","stop_id":"0:JURY1","stop_name":"JURY","lat":"49.0695572","lon":"6.2532887"},
{"id":"238","stop_id":"0:PLATEAU1","stop_name":"PLATEAU","lat":"49.0823863","lon":"6.184226"},
{"id":"239","stop_id":"0:EGLISE2","stop_name":"EGLISE","lat":"49.0986289","lon":"6.1733293"},
{"id":"240","stop_id":"0:HAMJER01","stop_name":"HAMEAU JERUSALEM","lat":"49.1859417","lon":"6.0374426"},
{"id":"241","stop_id":"0:CITSNCF1","stop_name":"CITE SNCF","lat":"49.090923","lon":"6.1295339"},
{"id":"242","stop_id":"0:EGLISE1","stop_name":"EGLISE","lat":"49.0990234","lon":"6.1737235"},
{"id":"243","stop_id":"0:PLATEAU2","stop_name":"PLATEAU","lat":"49.0817296","lon":"6.184898"},
{"id":"244","stop_id":"0:DEVILLY1","stop_name":"DEVILLY","lat":"49.1049704","lon":"6.1944812"},
{"id":"245","stop_id":"0:FELIX320","stop_name":"FELIX MARECHAL","lat":"49.1292885","lon":"6.137227"},
{"id":"246","stop_id":"0:ATELMUN1","stop_name":"ATELIERS MUNICIPAUX","lat":"49.1425623","lon":"6.1222866"},
{"id":"247","stop_id":"0:PREVIL01","stop_name":"PREVILLE","lat":"49.1022875","lon":"6.1049088"},
{"id":"248","stop_id":"0:ATELMUN2","stop_name":"ATELIERS MUNICIPAUX","lat":"49.1424589","lon":"6.1214164"},
{"id":"249","stop_id":"0:GROSNOY1","stop_name":"GROS NOYERS","lat":"49.1338169","lon":"6.2801448"},
{"id":"250","stop_id":"0:PRO02","stop_name":"PROVENCE","lat":"49.113278","lon":"6.2166789"},
{"id":"251","stop_id":"0:FRANCLO1","stop_name":"FRANCLONCHAMPS","lat":"49.1711495","lon":"6.1898251"},
{"id":"252","stop_id":"0:PRO01","stop_name":"PROVENCE","lat":"49.1132653","lon":"6.2168152"},
{"id":"253","stop_id":"0:BOILVIN1","stop_name":"BOILVIN","lat":"49.1033665","lon":"6.1748666"},
{"id":"254","stop_id":"0:BOILVIN2","stop_name":"BOILVIN","lat":"49.1035523","lon":"6.174645"},
{"id":"255","stop_id":"0:GDECOLE1","stop_name":"GRANDES ECOLES","lat":"49.0936756","lon":"6.2298911"},
{"id":"256","stop_id":"0:VILLORM1","stop_name":"VILLERS-L'ORME","lat":"49.1519417","lon":"6.2475738"},
{"id":"257","stop_id":"0:GDECOLE2","stop_name":"GRANDES ECOLES","lat":"49.0936758","lon":"6.23022"},
{"id":"258","stop_id":"0:RUISSEA2","stop_name":"RUISSEAU","lat":"49.1510797","lon":"6.1586159"},
{"id":"259","stop_id":"0:CHANTRE1","stop_name":"CHANTRENNE","lat":"49.1440903","lon":"6.0104521"},
{"id":"260","stop_id":"0:RUISSEA1","stop_name":"RUISSEAU","lat":"49.151052","lon":"6.1586416"},
{"id":"261","stop_id":"0:STMAXI1","stop_name":"ST-MAXIMIN","lat":"49.1057994","lon":"6.1968074"},
{"id":"262","stop_id":"0:STMAXI2","stop_name":"ST-MAXIMIN","lat":"49.1057233","lon":"6.1966246"},
{"id":"263","stop_id":"0:SVICTOR1","stop_name":"ST-VICTOR","lat":"49.0983199","lon":"6.1474385"},
{"id":"264","stop_id":"0:2FONTAI1","stop_name":"DEUX FONTAINES","lat":"49.1480575","lon":"6.1715719"},
{"id":"265","stop_id":"0:PONTVER2","stop_name":"PONT DE VERDUN","lat":"49.1195687","lon":"6.1445346"},
{"id":"266","stop_id":"0:2FONTAI2","stop_name":"DEUX FONTAINES","lat":"49.1489572","lon":"6.1715722"},
{"id":"267","stop_id":"0:SVICTOR2","stop_name":"ST-VICTOR","lat":"49.0979633","lon":"6.1462795"},
{"id":"268","stop_id":"0:LIBERTE1","stop_name":"LIBERTE","lat":"49.1073505","lon":"6.1161491"},
{"id":"269","stop_id":"0:VIGNES2","stop_name":"LES VIGNES","lat":"49.1289033","lon":"6.1450877"},
{"id":"270","stop_id":"0:BONSEC1","stop_name":"BON SECOURS","lat":"49.1074251","lon":"6.1690573"},
{"id":"271","stop_id":"0:LIBERTE2","stop_name":"LIBERTE","lat":"49.1076138","lon":"6.1167542"},
{"id":"272","stop_id":"0:BONSEC2","stop_name":"BON SECOURS","lat":"49.1068958","lon":"6.1683123"},
{"id":"273","stop_id":"0:PONTVER1","stop_name":"PONT DE VERDUN","lat":"49.1190685","lon":"6.1443946"},
{"id":"274","stop_id":"0:VIGNES1","stop_name":"LES VIGNES","lat":"49.1293729","lon":"6.145363"},
{"id":"275","stop_id":"0:COUROR1","stop_name":"COUR D'OR","lat":"49.1205297","lon":"6.1788249"},
{"id":"276","stop_id":"0:COLOMBI1","stop_name":"COLOMBIER","lat":"49.0482731","lon":"6.1855409"},
{"id":"277","stop_id":"0:CHAPITR1","stop_name":"CHAPITRE","lat":"49.1521124","lon":"6.1614361"},
{"id":"278","stop_id":"0:CHAPITR2","stop_name":"CHAPITRE","lat":"49.152103","lon":"6.1617922"},
{"id":"279","stop_id":"0:FOURNIE2","stop_name":"FOURNIER","lat":"49.1224124","lon":"6.1835059"},
{"id":"280","stop_id":"0:FOURNIE1","stop_name":"FOURNIER","lat":"49.1225149","lon":"6.1833751"},
{"id":"281","stop_id":"0:BAUCHEZ1","stop_name":"BAUCHEZ","lat":"49.1365295","lon":"6.1431784"},
{"id":"282","stop_id":"0:BAUCHEZ2","stop_name":"BAUCHEZ","lat":"49.136477","lon":"6.1427776"},
{"id":"283","stop_id":"0:POINCAR2","stop_name":"POINCARE","lat":"49.1176455","lon":"6.1691205"},
{"id":"284","stop_id":"0:MASLIEV1","stop_name":"MAS AU LIEVRE","lat":"49.1297715","lon":"6.2760354"},
{"id":"285","stop_id":"0:MASLIEV2","stop_name":"MAS AU LIEVRE","lat":"49.1302715","lon":"6.2755185"},
{"id":"286","stop_id":"0:POINCAR1","stop_name":"POINCARE","lat":"49.1164273","lon":"6.1685662"},
{"id":"287","stop_id":"0:BILAIN1","stop_name":"PAUL BILAINE","lat":"49.1655664","lon":"6.0344631"},
{"id":"288","stop_id":"0:M113A","stop_name":"M113A","lat":"49.0621141","lon":"6.1613313"},
{"id":"289","stop_id":"0:STQUENT1","stop_name":"ST-QUENTIN","lat":"49.0973749","lon":"6.1443527"},
{"id":"290","stop_id":"0:STQUENT2","stop_name":"ST-QUENTIN","lat":"49.0970431","lon":"6.1432775"},
{"id":"291","stop_id":"0:MARIEUL1","stop_name":"MARIEULLES","lat":"48.9988243","lon":"6.1003087"},
{"id":"292","stop_id":"0:MARIEUL2","stop_name":"MARIEULLES","lat":"48.9989997","lon":"6.1001414"},
{"id":"293","stop_id":"0:PJOLY2","stop_name":"PAUL JOLY","lat":"49.0638083","lon":"6.1482197"},
{"id":"294","stop_id":"0:METMAN1","stop_name":"METMAN","lat":"49.1201386","lon":"6.2084543"},
{"id":"295","stop_id":"0:PJOLY1","stop_name":"PAUL JOLY","lat":"49.0639489","lon":"6.1483515"},
{"id":"296","stop_id":"0:METMAN2","stop_name":"METMAN","lat":"49.120099","lon":"6.2102752"},
{"id":"297","stop_id":"0:ROSEMAR2","stop_name":"ROSE MARCUS","lat":"49.1473311","lon":"6.1485252"},
{"id":"298","stop_id":"0:ROSEMAR1","stop_name":"ROSE MARCUS","lat":"49.1474177","lon":"6.1486539"},
{"id":"299","stop_id":"0:VCANADI2","stop_name":"VILLAGE CANADIEN","lat":"49.0553715","lon":"6.2400892"},
{"id":"300","stop_id":"0:CHENEAU2","stop_name":"CHENEAU","lat":"49.1089113","lon":"6.1208481"},
{"id":"301","stop_id":"0:VCANADI1","stop_name":"VILLAGE CANADIEN","lat":"49.0562088","lon":"6.2397444"},
{"id":"302","stop_id":"0:CHENEAU1","stop_name":"CHENEAU","lat":"49.1088778","lon":"6.1207501"},
{"id":"303","stop_id":"0:RONEGL2","stop_name":"RONCOURT EGLISE","lat":"49.1994909","lon":"6.0363849"},
{"id":"304","stop_id":"0:RONEGL1","stop_name":"RONCOURT EGLISE","lat":"49.1993672","lon":"6.0359383"},
{"id":"305","stop_id":"0:DOLICHE1","stop_name":"DOLICHE","lat":"49.0943261","lon":"6.2458269"},
{"id":"306","stop_id":"0:VAUTRIN2","stop_name":"QUAI VAUTRIN","lat":"49.1196083","lon":"6.1714615"},
{"id":"307","stop_id":"0:DOLICHE2","stop_name":"DOLICHE","lat":"49.0946297","lon":"6.2459145"},
{"id":"308","stop_id":"0:VAUTRIN3","stop_name":"QUAI VAUTRIN","lat":"49.1191736","lon":"6.1708865"},
{"id":"309","stop_id":"0:LOUVIE02","stop_name":"LOUVIERE","lat":"49.039376","lon":"6.1513363"},
{"id":"310","stop_id":"0:LOUVIE01","stop_name":"LOUVIERE","lat":"49.0392718","lon":"6.1508509"},
{"id":"311","stop_id":"0:RONCEN1","stop_name":"RONCOURT CENTRE","lat":"49.2022232","lon":"6.0411311"},
{"id":"312","stop_id":"0:RONCEN2","stop_name":"RONCOURT CENTRE","lat":"49.2019903","lon":"6.04109"},
{"id":"313","stop_id":"0:BOUZONV4","stop_name":"BOUZONVILLE","lat":"49.1378984","lon":"6.2176598"},
{"id":"314","stop_id":"0:BOUZONV3","stop_name":"BOUZONVILLE","lat":"49.1378178","lon":"6.2169691"},
{"id":"315","stop_id":"0:VALERIA2","stop_name":"VALERIANE","lat":"49.0705174","lon":"6.1903179"},
{"id":"316","stop_id":"0:BLEUETS1","stop_name":"BLEUETS","lat":"49.0664947","lon":"6.1644743"},
{"id":"317","stop_id":"0:CLO01","stop_name":"CLOUTIERS","lat":"49.1139807","lon":"6.2300741"},
{"id":"318","stop_id":"0:FRICHES1","stop_name":"LES FRICHES","lat":"49.0999563","lon":"6.1419879"},
{"id":"319","stop_id":"0:FRICHES2","stop_name":"LES FRICHES","lat":"49.1000935","lon":"6.1419003"},
{"id":"320","stop_id":"0:VALERIA1","stop_name":"VALERIANE","lat":"49.0709825","lon":"6.1887303"},
{"id":"321","stop_id":"0:VALLONS1","stop_name":"LES VALLONS","lat":"49.0784","lon":"6.2653506"},
{"id":"322","stop_id":"0:VALLONS2","stop_name":"LES VALLONS","lat":"49.0777587","lon":"6.2651047"},
{"id":"323","stop_id":"0:CLO02","stop_name":"CLOUTIERS","lat":"49.1141499","lon":"6.2301395"},
{"id":"324","stop_id":"0:LAVOIR2","stop_name":"LAVOIR","lat":"49.0968344","lon":"6.175179"},
{"id":"325","stop_id":"0:LIBERAT1","stop_name":"LIBERATION","lat":"49.0612545","lon":"6.1181446"},
{"id":"326","stop_id":"0:LAVOIR1","stop_name":"LAVOIR","lat":"49.0973875","lon":"6.1746785"},
{"id":"327","stop_id":"0:LIBERAT2","stop_name":"LIBERATION","lat":"49.0612533","lon":"6.1178433"},
{"id":"328","stop_id":"0:GIRAUDO2","stop_name":"GIRAUDOUX","lat":"49.0972095","lon":"6.2003886"},
{"id":"329","stop_id":"0:GRAVIER1","stop_name":"GRAVIERES","lat":"49.0808021","lon":"6.110389"},
{"id":"330","stop_id":"0:PENSEES1","stop_name":"PENSEES","lat":"49.1347943","lon":"6.2736653"},
{"id":"331","stop_id":"0:GIRAUDO1","stop_name":"GIRAUDOUX","lat":"49.0975799","lon":"6.1996578"},
{"id":"332","stop_id":"0:PENSEES2","stop_name":"PENSEES","lat":"49.1346323","lon":"6.2739979"},
{"id":"333","stop_id":"0:COSTEBE4","stop_name":"COSTES ET BELLONTE","lat":"49.0820395","lon":"6.1485597"},
{"id":"334","stop_id":"0:LUX03","stop_name":"SQUARE DU LUXEMBOURG","lat":"49.1211729","lon":"6.1687742"},
{"id":"335","stop_id":"0:STNICOL3","stop_name":"ST-NICOLAS","lat":"49.1123375","lon":"6.1769242"},
{"id":"336","stop_id":"0:COSTEBE3","stop_name":"COSTES ET BELLONTE","lat":"49.0821814","lon":"6.1482943"},
{"id":"337","stop_id":"0:HAIEBRU2","stop_name":"HAIE BRULEE","lat":"49.1110697","lon":"6.0968823"},
{"id":"338","stop_id":"0:HAIEBRU1","stop_name":"HAIE BRULEE","lat":"49.1107332","lon":"6.0973693"},
{"id":"339","stop_id":"0:LUX01","stop_name":"SQUARE DU LUXEMBOURG","lat":"49.1212412","lon":"6.1689155"},
{"id":"340","stop_id":"0:LUX02","stop_name":"SQUARE DU LUXEMBOURG","lat":"49.1214388","lon":"6.1692703"},
{"id":"341","stop_id":"0:PROVENC1","stop_name":"PROVENCE","lat":"49.112789","lon":"6.215785"},
{"id":"342","stop_id":"0:PROVENC2","stop_name":"PROVENCE","lat":"49.1126937","lon":"6.2159847"},
{"id":"343","stop_id":"0:COSTEBE2","stop_name":"COSTES ET BELLONTE","lat":"49.0842403","lon":"6.149392"},
{"id":"344","stop_id":"0:HORGNE1","stop_name":"LA HORGNE","lat":"49.0932717","lon":"6.1724259"},
{"id":"345","stop_id":"0:COSTEBE1","stop_name":"COSTES ET BELLONTE","lat":"49.0834435","lon":"6.1488915"},
{"id":"346","stop_id":"0:HORGNE2","stop_name":"LA HORGNE","lat":"49.0939236","lon":"6.1719314"},
{"id":"347","stop_id":"0:STNICOL4","stop_name":"ST-NICOLAS","lat":"49.1125376","lon":"6.1771832"},
{"id":"348","stop_id":"0:PARAIGE1","stop_name":"PARAIGES","lat":"49.117231","lon":"6.1797055"},
{"id":"349","stop_id":"0:THERMES1","stop_name":"THERMES","lat":"49.0502911","lon":"6.1834196"},
{"id":"350","stop_id":"0:AUGNYMA1","stop_name":"AUGNY MAIRIE","lat":"49.0586829","lon":"6.1218787"},
{"id":"351","stop_id":"0:JUNGLIN1","stop_name":"JUNGLING","lat":"49.1485179","lon":"6.1526849"},
{"id":"352","stop_id":"0:JUNGLIN2","stop_name":"JUNGLING","lat":"49.148391","lon":"6.1523754"},
{"id":"353","stop_id":"0:VOLONTA2","stop_name":"VOLONTAIRES","lat":"49.0868419","lon":"6.1568934"},
{"id":"354","stop_id":"0:VOLONTA1","stop_name":"VOLONTAIRES","lat":"49.0863241","lon":"6.1563961"},
{"id":"355","stop_id":"0:FRECOT2","stop_name":"FRECOT","lat":"49.0913167","lon":"6.181363"},
{"id":"356","stop_id":"0:FRECOT1","stop_name":"FRECOT","lat":"49.0906594","lon":"6.18172"},
{"id":"357","stop_id":"0:IKEA2","stop_name":"IKEA","lat":"49.1517688","lon":"6.1880959"},
{"id":"358","stop_id":"0:IKEA1","stop_name":"IKEA","lat":"49.1517322","lon":"6.1891362"},
{"id":"359","stop_id":"0:FON02","stop_name":"DEUX FONTAINES","lat":"49.1494333","lon":"6.1722872"},
{"id":"360","stop_id":"0:FON01","stop_name":"DEUX FONTAINES","lat":"49.149323","lon":"6.1720335"},
{"id":"361","stop_id":"0:BERNANO1","stop_name":"GEORGES BERNANOS","lat":"49.1329797","lon":"6.1680431"},
{"id":"362","stop_id":"0:BERNANO2","stop_name":"GEORGES BERNANOS","lat":"49.1329683","lon":"6.1677956"},
{"id":"363","stop_id":"0:CENTRAL1","stop_name":"CENTRALE","lat":"49.1550548","lon":"6.1859935"},
{"id":"364","stop_id":"0:CENTRAL2","stop_name":"CENTRALE","lat":"49.1546587","lon":"6.1863395"},
{"id":"365","stop_id":"0:BERLANG1","stop_name":"BERLANGE","lat":"49.1557439","lon":"6.1571171"},
{"id":"366","stop_id":"0:BERLANG2","stop_name":"BERLANGE","lat":"49.1561467","lon":"6.1571965"},
{"id":"367","stop_id":"0:DURUTTE1","stop_name":"DURUTTE","lat":"49.1137344","lon":"6.2026157"},
{"id":"368","stop_id":"0:DURUTTE2","stop_name":"DURUTTE","lat":"49.1135112","lon":"6.2028897"},
{"id":"369","stop_id":"0:MANGIN1","stop_name":"MANGIN","lat":"49.1029288","lon":"6.1648491"},
{"id":"370","stop_id":"0:GAMBETT1","stop_name":"GAMBETTA","lat":"49.1494134","lon":"6.1597076"},
{"id":"371","stop_id":"0:GAMBETT2","stop_name":"GAMBETTA","lat":"49.1490382","lon":"6.1599453"},
{"id":"372","stop_id":"0:PASSERE2","stop_name":"LA PASSERELLE","lat":"49.0748783","lon":"6.2565128"},
{"id":"373","stop_id":"0:PASSERE1","stop_name":"LA PASSERELLE","lat":"49.075071","lon":"6.2563742"},
{"id":"374","stop_id":"0:CHESNM4","stop_name":"CHESNY MAIRIE","lat":"49.0539272","lon":"6.2415873"},
{"id":"375","stop_id":"0:LEMUD03","stop_name":"LEMUD","lat":"49.1039104","lon":"6.17982"},
{"id":"376","stop_id":"0:LEMUD04","stop_name":"LEMUD","lat":"49.1041897","lon":"6.1794671"},
{"id":"377","stop_id":"0:LEPATIS1","stop_name":"LE PATIS","lat":"49.1564476","lon":"6.1388182"},
{"id":"378","stop_id":"0:COUPILL2","stop_name":"COUPILLON","lat":"49.1416449","lon":"6.1481657"},
{"id":"379","stop_id":"0:FRIANT1","stop_name":"FRIANT","lat":"49.1085321","lon":"6.1877654"},
{"id":"380","stop_id":"0:ARDECHE1","stop_name":"ARDECHE","lat":"49.1010446","lon":"6.106698"},
{"id":"381","stop_id":"0:ARDECHE2","stop_name":"ARDECHE","lat":"49.1014242","lon":"6.1062822"},
{"id":"382","stop_id":"0:RUEMOUL1","stop_name":"RUE DU MOULIN","lat":"49.1558205","lon":"6.1050743"},
{"id":"383","stop_id":"0:GANNE1","stop_name":"GANNE","lat":"49.1156604","lon":"6.2039548"},
{"id":"384","stop_id":"0:WAVES1","stop_name":"WAVES ACTISUD","lat":"49.08102","lon":"6.1005666"},
{"id":"385","stop_id":"0:GANNE2","stop_name":"GANNE","lat":"49.1156925","lon":"6.205451"},
{"id":"386","stop_id":"0:GDFLAME1","stop_name":"GRANDE FLAMEE","lat":"49.1828475","lon":"6.0402667"},
{"id":"387","stop_id":"0:ABS591","stop_name":"AUBEPINE","lat":"49.0717221","lon":"6.1934052"},
{"id":"388","stop_id":"0:FRIANT2","stop_name":"FRIANT","lat":"49.1080553","lon":"6.1877635"},
{"id":"389","stop_id":"0:MANGIN2","stop_name":"MANGIN","lat":"49.1029453","lon":"6.1645623"},
{"id":"390","stop_id":"0:ECO02","stop_name":"GRANDES ECOLES","lat":"49.0933729","lon":"6.2301052"},
{"id":"391","stop_id":"0:ECO01","stop_name":"GRANDES ECOLES","lat":"49.0933505","lon":"6.2302682"},
{"id":"392","stop_id":"0:TIGNO395","stop_name":"TIGNOMONT","lat":"49.1287137","lon":"6.1605563"},
{"id":"393","stop_id":"0:COUPILL1","stop_name":"COUPILLON","lat":"49.1413833","lon":"6.1481909"},
{"id":"394","stop_id":"0:EUROPAC1","stop_name":"EUROPA COURCELLES","lat":"49.1019006","lon":"6.1584412"},
{"id":"395","stop_id":"0:EUROPAC2","stop_name":"EUROPA COURCELLES","lat":"49.1021435","lon":"6.1587849"},
{"id":"396","stop_id":"0:MEURISS2","stop_name":"MEURISSE","lat":"49.1022678","lon":"6.1561065"},
{"id":"397","stop_id":"0:MEURISS1","stop_name":"MEURISSE","lat":"49.1016799","lon":"6.1551936"},
{"id":"398","stop_id":"0:PLAINE2","stop_name":"LA PLAINE","lat":"49.0786403","lon":"6.1897493"},
{"id":"399","stop_id":"0:PLAINE1","stop_name":"LA PLAINE","lat":"49.0787197","lon":"6.1898089"},
{"id":"400","stop_id":"0:FONNY1","stop_name":"FONNY","lat":"49.1297053","lon":"6.2349354"},
{"id":"401","stop_id":"0:SER02","stop_name":"SERRURIERS","lat":"49.1168943","lon":"6.2405099"},
{"id":"402","stop_id":"0:MEYVIGN2","stop_name":"MEY LES VIGNES","lat":"49.1342434","lon":"6.236837"},
{"id":"403","stop_id":"0:FONNY2","stop_name":"FONNY","lat":"49.1294699","lon":"6.2349892"},
{"id":"404","stop_id":"0:MEYVIGN1","stop_name":"MEY LES VIGNES","lat":"49.1339914","lon":"6.237507"},
{"id":"405","stop_id":"0:SER01","stop_name":"SERRURIERS","lat":"49.1171526","lon":"6.2406084"},
{"id":"406","stop_id":"0:CORCHAD1","stop_name":"CORCHADE","lat":"49.1231339","lon":"6.2152345"},
{"id":"407","stop_id":"0:AUGNYMA2","stop_name":"AUGNY MAIRIE","lat":"49.0586735","lon":"6.1218918"},
{"id":"408","stop_id":"0:LONGEVI1","stop_name":"LONGEVILLE","lat":"49.1123126","lon":"6.1343349"},
{"id":"409","stop_id":"0:CORCHAD2","stop_name":"CORCHADE","lat":"49.1231974","lon":"6.2155537"},
{"id":"410","stop_id":"0:LONGEVI2","stop_name":"LONGEVILLE","lat":"49.1127771","lon":"6.135158"},
{"id":"411","stop_id":"0:LARDEME1","stop_name":"LARDEMELLE","lat":"49.1237836","lon":"6.1492051"},
{"id":"412","stop_id":"0:CANAL101","stop_name":"CANAL","lat":"49.1095752","lon":"6.1636103"},
{"id":"413","stop_id":"0:LARDEME2","stop_name":"LARDEMELLE","lat":"49.1241329","lon":"6.149953"},
{"id":"414","stop_id":"0:SYMPHON1","stop_name":"SYMPHONIE","lat":"49.1046982","lon":"6.2141453"},
{"id":"415","stop_id":"0:CANAL102","stop_name":"CANAL","lat":"49.1096603","lon":"6.1634511"},
{"id":"416","stop_id":"0:SYMPHON2","stop_name":"SYMPHONIE","lat":"49.1048971","lon":"6.215117"},
{"id":"417","stop_id":"0:SYMPHON3","stop_name":"SYMPHONIE","lat":"49.1038866","lon":"6.2152188"},
{"id":"418","stop_id":"0:OBELLI02","stop_name":"OBELLIANE","lat":"49.0762152","lon":"6.1926273"},
{"id":"419","stop_id":"0:OBELLI01","stop_name":"OBELLIANE","lat":"49.075901","lon":"6.1929367"},
{"id":"420","stop_id":"0:CROIXDO2","stop_name":"CROIX D'OREE","lat":"49.1323089","lon":"6.1255901"},
{"id":"421","stop_id":"0:FOURNIR1","stop_name":"EN FOURNIRUE","lat":"49.1180128","lon":"6.1787253"},
{"id":"422","stop_id":"0:ACTISUD1","stop_name":"ACTISUD DUNIL","lat":"49.076516","lon":"6.1028449"},
{"id":"423","stop_id":"0:ACTISUD2","stop_name":"ACTISUD DUNIL","lat":"49.0764686","lon":"6.102938"},
{"id":"424","stop_id":"0:VAILLAN1","stop_name":"VAILLANT","lat":"49.1003566","lon":"6.1627461"},
{"id":"425","stop_id":"0:VAILLAN2","stop_name":"VAILLANT","lat":"49.0997019","lon":"6.1619798"},
{"id":"426","stop_id":"0:MAT01","stop_name":"MATERNITE","lat":"49.0820902","lon":"6.2387316"},
{"id":"427","stop_id":"0:BARBE1","stop_name":"BARBE","lat":"49.1297296","lon":"6.2300142"},
{"id":"428","stop_id":"0:LAFAYET2","stop_name":"LAFAYETTE","lat":"49.1080323","lon":"6.172987"},
{"id":"429","stop_id":"0:PRIEURE1","stop_name":"PRIEURE","lat":"49.1079406","lon":"6.0852513"},
{"id":"430","stop_id":"0:BARBE2","stop_name":"BARBE","lat":"49.1292825","lon":"6.229575"},
{"id":"431","stop_id":"0:LAFAYET1","stop_name":"LAFAYETTE","lat":"49.1078634","lon":"6.1729081"},
{"id":"432","stop_id":"0:30JOURS2","stop_name":"TRENTE JOURS","lat":"49.0965577","lon":"6.2458297"},
{"id":"433","stop_id":"0:VIGNEUL1","stop_name":"VIGNEULLES","lat":"49.1469308","lon":"6.1210688"},
{"id":"434","stop_id":"0:30JOURS1","stop_name":"TRENTE JOURS","lat":"49.0961621","lon":"6.2458186"},
{"id":"435","stop_id":"0:AMAZON1","stop_name":"AMAZON","lat":"49.0641225","lon":"6.1293134"},
{"id":"436","stop_id":"0:HSCHUMA2","stop_name":"HOPITAL SCHUMAN","lat":"49.1237084","lon":"6.2424307"},
{"id":"437","stop_id":"0:PALAISS2","stop_name":"PALAIS DES SPORTS","lat":"49.1114234","lon":"6.1610778"},
{"id":"438","stop_id":"0:RSCHUMA1","stop_name":"SCHUMAN","lat":"49.1106221","lon":"6.1121243"},
{"id":"439","stop_id":"0:PALAISS1","stop_name":"PALAIS DES SPORTS","lat":"49.1110903","lon":"6.1614275"},
{"id":"440","stop_id":"0:RSCHUMA2","stop_name":"SCHUMAN","lat":"49.1108542","lon":"6.1118504"},
{"id":"441","stop_id":"0:RAPLEVY1","stop_name":"RAPHAEL LEVY","lat":"49.1200379","lon":"6.1905984"},
{"id":"442","stop_id":"0:RAPLEVY2","stop_name":"RAPHAEL LEVY","lat":"49.1203131","lon":"6.1907388"},
{"id":"443","stop_id":"0:LACORV01","stop_name":"LA CORVEE","lat":"48.9788894","lon":"6.0874847"},
{"id":"444","stop_id":"0:CUVION2","stop_name":"CUVION","lat":"49.092358","lon":"6.2427303"},
{"id":"445","stop_id":"0:JFERRAT2","stop_name":"JEAN FERRAT","lat":"49.0783813","lon":"6.0817663"},
{"id":"446","stop_id":"0:LACORV02","stop_name":"LA CORVEE","lat":"48.9787661","lon":"6.0873816"},
{"id":"447","stop_id":"0:CUVION1","stop_name":"CUVION","lat":"49.0924931","lon":"6.242725"},
{"id":"448","stop_id":"0:JFERRAT1","stop_name":"JEAN FERRAT","lat":"49.0775178","lon":"6.0807014"},
{"id":"449","stop_id":"0:EXP02","stop_name":"P+R FOIRE EXPO","lat":"49.0915702","lon":"6.2315549"},
{"id":"450","stop_id":"0:EXP01","stop_name":"P+R FOIRE EXPO","lat":"49.0914046","lon":"6.2313527"},
{"id":"451","stop_id":"0:LOTISSE1","stop_name":"LOTISSEMENT","lat":"49.0640488","lon":"6.1165735"},
{"id":"452","stop_id":"0:LOTISSE2","stop_name":"LOTISSEMENT","lat":"49.0635046","lon":"6.1163902"},
{"id":"453","stop_id":"0:PTIJURY2","stop_name":"PETIT JURY","lat":"49.0669535","lon":"6.2454146"},
{"id":"454","stop_id":"0:PTIJURY1","stop_name":"PETIT JURY","lat":"49.0670939","lon":"6.2455467"},
{"id":"455","stop_id":"0:MERMOZ2","stop_name":"MERMOZ","lat":"49.0940237","lon":"6.1520556"},
{"id":"456","stop_id":"0:OBERL668","stop_name":"OBERLING","lat":"49.103223","lon":"6.2043507"},
{"id":"457","stop_id":"0:PINS01","stop_name":"PINS","lat":"49.1319536","lon":"6.2148496"},
{"id":"458","stop_id":"0:ZACAUGN2","stop_name":"ZAC D'AUGNY","lat":"49.07527","lon":"6.1050988"},
{"id":"459","stop_id":"0:AZALEES1","stop_name":"AZALEES","lat":"49.0673188","lon":"6.1680306"},
{"id":"460","stop_id":"0:ZACAUGN1","stop_name":"ZAC D'AUGNY","lat":"49.0750741","lon":"6.1067581"},
{"id":"461","stop_id":"0:MERMOZ1","stop_name":"MERMOZ","lat":"49.0936384","lon":"6.1516485"},
{"id":"462","stop_id":"0:MOY01","stop_name":"MOYEN PONT","lat":"49.1190001","lon":"6.1703001"},
{"id":"463","stop_id":"0:PATROTT2","stop_name":"PATROTTE","lat":"49.1349645","lon":"6.1610063"},
{"id":"464","stop_id":"0:PATROTT1","stop_name":"PATROTTE","lat":"49.1345897","lon":"6.1612303"},
{"id":"465","stop_id":"0:PORTMZ2","stop_name":"PORT DE METZ","lat":"49.1375767","lon":"6.1810371"},
{"id":"466","stop_id":"0:BORDES1","stop_name":"LES BORDES","lat":"49.1141845","lon":"6.2218072"},
{"id":"467","stop_id":"0:BORDES3","stop_name":"LES BORDES","lat":"49.1135542","lon":"6.2224945"},
{"id":"468","stop_id":"0:CLEMENC1","stop_name":"CLEMENCEAU","lat":"49.0809529","lon":"6.0846451"},
{"id":"469","stop_id":"0:CLEMENC2","stop_name":"CLEMENCEAU","lat":"49.0801906","lon":"6.0838464"},
{"id":"470","stop_id":"0:PORTMZ1","stop_name":"PORT DE METZ","lat":"49.137313","lon":"6.1808015"},
{"id":"471","stop_id":"0:OBERL653","stop_name":"OBERLING","lat":"49.1030797","lon":"6.2049996"},
{"id":"472","stop_id":"0:SORBIER3","stop_name":"LES SORBIERS","lat":"49.0677332","lon":"6.1461024"},
{"id":"473","stop_id":"0:SORBIER2","stop_name":"LES SORBIERS","lat":"49.0686001","lon":"6.1466754"},
{"id":"474","stop_id":"0:SORBIER1","stop_name":"LES SORBIERS","lat":"49.0688613","lon":"6.1470063"},
{"id":"475","stop_id":"0:PRESJAC1","stop_name":"PRES ST-JACQUES","lat":"49.1343139","lon":"6.1308396"},
{"id":"476","stop_id":"0:CHATRIA2","stop_name":"CHATRIAN","lat":"49.1030671","lon":"6.148275"},
{"id":"477","stop_id":"0:ERMITAG2","stop_name":"ERMITAGE","lat":"49.118341","lon":"6.0964945"},
{"id":"478","stop_id":"0:ERMITAG1","stop_name":"ERMITAGE","lat":"49.1182863","lon":"6.096176"},
{"id":"479","stop_id":"0:ARA02","stop_name":"FRANCOIS ARAGO","lat":"49.1019757","lon":"6.2244057"},
{"id":"480","stop_id":"0:19NOV02","stop_name":"19 NOVEMBRE","lat":"49.0920303","lon":"6.1614844"},
{"id":"481","stop_id":"0:19NOV01","stop_name":"19 NOVEMBRE","lat":"49.0917737","lon":"6.161318"},
{"id":"482","stop_id":"0:ARA01","stop_name":"FRANCOIS ARAGO","lat":"49.1018619","lon":"6.224289"},
{"id":"483","stop_id":"0:STJFORT2","stop_name":"ST-JULIEN FORT","lat":"49.1413787","lon":"6.206616"},
{"id":"484","stop_id":"0:STJFORT1","stop_name":"ST-JULIEN FORT","lat":"49.1408802","lon":"6.2057348"},
{"id":"485","stop_id":"0:VOSGES2","stop_name":"VOSGES","lat":"49.0937306","lon":"6.1326357"},
{"id":"486","stop_id":"0:VOSGES1","stop_name":"VOSGES","lat":"49.0936678","lon":"6.1329744"},
{"id":"487","stop_id":"0:4VENTS1","stop_name":"QUATRE VENTS","lat":"49.0944312","lon":"6.1762239"},
{"id":"488","stop_id":"0:FAVADE01","stop_name":"FAVADE","lat":"49.1179036","lon":"6.1804733"},
{"id":"489","stop_id":"0:APREMON2","stop_name":"APREMONT","lat":"49.0805814","lon":"6.1864577"},
{"id":"490","stop_id":"0:REP01","stop_name":"REPUBLIQUE","lat":"49.1149954","lon":"6.173386"},
{"id":"491","stop_id":"0:APREMON1","stop_name":"APREMONT","lat":"49.0805356","lon":"6.1868247"},
{"id":"492","stop_id":"0:REP02","stop_name":"REPUBLIQUE","lat":"49.1147928","lon":"6.1732228"},
{"id":"493","stop_id":"0:4VENTS2","stop_name":"QUATRE VENTS","lat":"49.0943845","lon":"6.175947"},
{"id":"494","stop_id":"0:CHAMPBA1","stop_name":"CHAMP BANAL","lat":"49.1726819","lon":"6.0455563"},
{"id":"495","stop_id":"0:SMARTIN2","stop_name":"ST-MARTIN","lat":"49.1217073","lon":"6.1508337"},
{"id":"496","stop_id":"0:SMARTIN1","stop_name":"ST-MARTIN","lat":"49.1214982","lon":"6.150917"},
{"id":"497","stop_id":"0:CAS01","stop_name":"RENE CASSIN","lat":"49.1358159","lon":"6.1659265"},
{"id":"498","stop_id":"0:CAS02","stop_name":"RENE CASSIN","lat":"49.1355341","lon":"6.1663755"},
{"id":"499","stop_id":"0:TERRESR1","stop_name":"TERRES ROUGES","lat":"49.1297983","lon":"6.197137"},
{"id":"500","stop_id":"0:TERRESR2","stop_name":"TERRES ROUGES","lat":"49.1299893","lon":"6.1977384"},
{"id":"501","stop_id":"0:CHATRIA1","stop_name":"CHATRIAN","lat":"49.1032867","lon":"6.1491655"},
{"id":"502","stop_id":"0:ROIGE694","stop_name":"ROI GEORGE","lat":"49.1106795","lon":"6.1712164"},
{"id":"503","stop_id":"0:STGEORG1","stop_name":"ST-GEORGES","lat":"49.1227466","lon":"6.1783578"},
{"id":"504","stop_id":"0:STOXEY2","stop_name":"STOXEY","lat":"49.1191751","lon":"6.1963168"},
{"id":"505","stop_id":"0:STGEORG2","stop_name":"ST-GEORGES","lat":"49.1224566","lon":"6.1780932"},
{"id":"506","stop_id":"0:STOXEY1","stop_name":"STOXEY","lat":"49.1200786","lon":"6.1961806"},
{"id":"507","stop_id":"0:SIMMI357","stop_name":"SIMMINGER","lat":"49.0903063","lon":"6.144883"},
{"id":"508","stop_id":"0:ROIGE695","stop_name":"ROI GEORGE","lat":"49.1109462","lon":"6.1709997"},
{"id":"509","stop_id":"0:CHEVHAI2","stop_name":"CHEVRE HAIE","lat":"49.0547938","lon":"6.1873654"},
{"id":"510","stop_id":"0:LAVANDI2","stop_name":"LAVANDIERES","lat":"49.1483953","lon":"6.1242706"},
{"id":"511","stop_id":"0:LAVANDI1","stop_name":"LAVANDIERES","lat":"49.148354","lon":"6.124131"},
{"id":"512","stop_id":"0:CHEVHAI1","stop_name":"CHEVRE HAIE","lat":"49.0547963","lon":"6.187612"},
{"id":"513","stop_id":"0:OEILLET1","stop_name":"OEILLETS","lat":"49.1251889","lon":"6.2305537"},
{"id":"514","stop_id":"0:VIN01","stop_name":"ST-VINCENT","lat":"49.1232723","lon":"6.1713979"},
{"id":"515","stop_id":"0:VIN02","stop_name":"ST-VINCENT","lat":"49.1239499","lon":"6.1723168"},
{"id":"516","stop_id":"0:BEL01","stop_name":"BELLETANCHE","lat":"49.1106636","lon":"6.2108008"},
{"id":"517","stop_id":"0:SAULNYC1","stop_name":"SAULNY CENTRE","lat":"49.158618","lon":"6.1061475"},
{"id":"518","stop_id":"0:BEL02","stop_name":"BELLETANCHE","lat":"49.1106544","lon":"6.2104713"},
{"id":"519","stop_id":"0:SAULNYC2","stop_name":"SAULNY CENTRE","lat":"49.1588652","lon":"6.105984"},
{"id":"520","stop_id":"0:CASTORS1","stop_name":"CASTORS","lat":"49.1284178","lon":"6.1457575"},
{"id":"521","stop_id":"0:CASTORS2","stop_name":"CASTORS","lat":"49.1285361","lon":"6.1457098"},
{"id":"522","stop_id":"0:GRAVELO1","stop_name":"GRAVELOTTE EGLISE","lat":"49.1091211","lon":"6.0303488"},
{"id":"523","stop_id":"0:MOULMAI1","stop_name":"MOULINS MAIRIE","lat":"49.1069925","lon":"6.1063419"},
{"id":"524","stop_id":"0:ENTRV1","stop_name":"ENTRE DEUX VILLES","lat":"49.1545754","lon":"6.245009"},
{"id":"525","stop_id":"0:ENTRV2","stop_name":"ENTRE DEUX VILLES","lat":"49.1542468","lon":"6.2451805"},
{"id":"526","stop_id":"0:GRAVELO2","stop_name":"GRAVELOTTE EGLISE","lat":"49.1091398","lon":"6.0303224"},
{"id":"527","stop_id":"0:STJEAN01","stop_name":"ST-JEAN","lat":"49.1080107","lon":"6.1048954"},
{"id":"528","stop_id":"0:STJEAN02","stop_name":"ST-JEAN","lat":"49.1078734","lon":"6.1056821"},
{"id":"529","stop_id":"0:08MAI01","stop_name":"8 MAI 45","lat":"49.0998088","lon":"6.1386764"},
{"id":"530","stop_id":"0:08MAI02","stop_name":"8 MAI 45","lat":"49.0999248","lon":"6.1383682"},
{"id":"531","stop_id":"0:AMPERE2","stop_name":"AMPERE","lat":"49.1036302","lon":"6.2288121"},
{"id":"532","stop_id":"0:ORLY2","stop_name":"ORLY","lat":"49.0758725","lon":"6.1169281"},
{"id":"533","stop_id":"0:JUSTICE1","stop_name":"JUSTICE","lat":"49.1665477","lon":"6.0383624"},
{"id":"534","stop_id":"0:ORLY1","stop_name":"ORLY","lat":"49.0756212","lon":"6.1165569"},
{"id":"535","stop_id":"0:AMPERE1","stop_name":"AMPERE","lat":"49.1033236","lon":"6.2288342"},
{"id":"536","stop_id":"0:ROI01","stop_name":"ROI GEORGE","lat":"49.1105221","lon":"6.1717277"},
{"id":"537","stop_id":"0:PRESSOI2","stop_name":"PRESSOIR","lat":"49.1351883","lon":"6.257165"},
{"id":"538","stop_id":"0:ROI02","stop_name":"ROI GEORGE","lat":"49.1107071","lon":"6.1715334"},
{"id":"539","stop_id":"0:MTPRIVA3","stop_name":"MONTIGNY ST-PRIVAT","lat":"49.084943","lon":"6.1548461"},
{"id":"540","stop_id":"0:ROI03","stop_name":"ROI GEORGE","lat":"49.1100148","lon":"6.1704904"},
{"id":"541","stop_id":"0:MTPRIVA2","stop_name":"MONTIGNY ST-PRIVAT","lat":"49.0851148","lon":"6.1548155"},
{"id":"542","stop_id":"0:FAUBOUP2","stop_name":"P+R FAUBOURG","lat":"49.0851304","lon":"6.1825451"},
{"id":"543","stop_id":"0:FAUBOUP3","stop_name":"P+R FAUBOURG","lat":"49.0848034","lon":"6.182662"},
{"id":"544","stop_id":"0:MOMENE1","stop_name":"MOMENE","lat":"49.1291881","lon":"6.1276093"},
{"id":"545","stop_id":"0:LYCFOUR2","stop_name":"LYCEE FOURNIER","lat":"49.1032744","lon":"6.1776705"},
{"id":"546","stop_id":"0:FAUBOUP1","stop_name":"P+R FAUBOURG","lat":"49.0854125","lon":"6.1827679"},
{"id":"547","stop_id":"0:ARTILLE1","stop_name":"ARTILLEURS","lat":"49.1202846","lon":"6.1935063"},
{"id":"548","stop_id":"0:NATION2","stop_name":"NATION","lat":"49.101386","lon":"6.1547371"},
{"id":"549","stop_id":"0:PEUPLIE2","stop_name":"PEUPLIERS","lat":"49.1050899","lon":"6.2102635"},
{"id":"550","stop_id":"0:ROI04","stop_name":"ROI GEORGE","lat":"49.1099749","lon":"6.1702961"},
{"id":"551","stop_id":"0:ARTILLE2","stop_name":"ARTILLEURS","lat":"49.1201863","lon":"6.1931438"},
{"id":"552","stop_id":"0:CHAHURY1","stop_name":"CHAHURY","lat":"49.1176864","lon":"6.0848584"},
{"id":"553","stop_id":"0:NATION1","stop_name":"NATION","lat":"49.1013295","lon":"6.1548296"},
{"id":"554","stop_id":"0:CHAHURY2","stop_name":"CHAHURY","lat":"49.1183566","lon":"6.0843363"},
{"id":"555","stop_id":"0:PEUPLIE1","stop_name":"PEUPLIERS","lat":"49.104613","lon":"6.2085756"},
{"id":"556","stop_id":"0:RUEMETZ2","stop_name":"RUE DE METZ","lat":"49.1562055","lon":"6.1117645"},
{"id":"557","stop_id":"0:RUEMETZ1","stop_name":"RUE DE METZ","lat":"49.1557561","lon":"6.1131367"},
{"id":"558","stop_id":"0:LEG01","stop_name":"HOPITAL LEGOUEST","lat":"49.1116983","lon":"6.1922232"},
{"id":"559","stop_id":"0:METZANI1","stop_name":"METZANINE","lat":"49.1070484","lon":"6.2312044"},
{"id":"560","stop_id":"0:POM01","stop_name":"CENTRE POMPIDOU METZ","lat":"49.1091248","lon":"6.1810172"},
{"id":"561","stop_id":"0:METZANI2","stop_name":"METZANINE","lat":"49.1067277","lon":"6.2314174"},
{"id":"562","stop_id":"0:LYAUT656","stop_name":"LYAUTEY","lat":"49.0940099","lon":"6.1686618"},
{"id":"563","stop_id":"0:ROCHAMB2","stop_name":"P+R ROCHAMBEAU","lat":"49.1298478","lon":"6.170114"},
{"id":"564","stop_id":"0:SIGISBE1","stop_name":"ST-SIGISBERT","lat":"49.1221022","lon":"6.1491577"},
{"id":"565","stop_id":"0:TEMPLE1","stop_name":"TEMPLE","lat":"49.0788197","lon":"6.0699165"},
{"id":"566","stop_id":"0:TEMPLE2","stop_name":"TEMPLE","lat":"49.0791121","lon":"6.0697421"},
{"id":"567","stop_id":"0:ROCHAMB1","stop_name":"P+R ROCHAMBEAU","lat":"49.1294306","lon":"6.1702393"},
{"id":"568","stop_id":"0:SIGISBE2","stop_name":"ST-SIGISBERT","lat":"49.1225344","lon":"6.1488002"},
{"id":"569","stop_id":"0:BILLOTT1","stop_name":"BILLOTTE","lat":"49.1259772","lon":"6.1966818"},
{"id":"570","stop_id":"0:BILLOTT2","stop_name":"BILLOTTE","lat":"49.1254695","lon":"6.1975005"},
{"id":"571","stop_id":"0:DUNANT3","stop_name":"DUNANT","lat":"49.1239086","lon":"6.2030665"},
{"id":"572","stop_id":"0:DUNANT2","stop_name":"DUNANT","lat":"49.1238309","lon":"6.2022665"},
{"id":"573","stop_id":"0:BOUCHOT2","stop_name":"BOUCHOTTE","lat":"49.0925005","lon":"6.1811753"},
{"id":"574","stop_id":"0:VIGNOTT1","stop_name":"VIGNOTTES","lat":"49.0419971","lon":"6.1567245"},
{"id":"575","stop_id":"0:VIGNOTT2","stop_name":"VIGNOTTES","lat":"49.0419719","lon":"6.1566545"},
{"id":"576","stop_id":"0:DUNANT1","stop_name":"DUNANT","lat":"49.1237191","lon":"6.203425"},
{"id":"577","stop_id":"0:HTMAGNY2","stop_name":"HAUTS-DE-MAGNY","lat":"49.0740696","lon":"6.1907419"},
{"id":"578","stop_id":"0:POM02","stop_name":"CENTRE POMPIDOU METZ","lat":"49.1091015","lon":"6.1808787"},
{"id":"579","stop_id":"0:ART01","stop_name":"ARTS ET METIERS","lat":"49.0964553","lon":"6.2262411"},
{"id":"580","stop_id":"0:ART02","stop_name":"ARTS ET METIERS","lat":"49.096569","lon":"6.2260289"},
{"id":"581","stop_id":"0:LEG02","stop_name":"HOPITAL LEGOUEST","lat":"49.111899","lon":"6.1927975"},
{"id":"582","stop_id":"0:MARNE2","stop_name":"MARNE","lat":"49.1267822","lon":"6.1542685"},
{"id":"583","stop_id":"0:VERDUN2","stop_name":"VERDUN","lat":"49.0802282","lon":"6.0580828"},
{"id":"584","stop_id":"0:MARNE1","stop_name":"MARNE","lat":"49.1267362","lon":"6.1539641"},
{"id":"585","stop_id":"0:SCHAZEL1","stop_name":"SCY-CHAZELLES","lat":"49.1141088","lon":"6.116816"},
{"id":"586","stop_id":"0:HTMAGNY1","stop_name":"HAUTS-DE-MAGNY","lat":"49.0742407","lon":"6.1907387"},
{"id":"587","stop_id":"0:BOUCHOT1","stop_name":"BOUCHOTTE","lat":"49.0926216","lon":"6.1813608"},
{"id":"588","stop_id":"0:POURNOY2","stop_name":"POURNOY-LA-CHETIVE","lat":"49.0207917","lon":"6.1551611"},
{"id":"589","stop_id":"0:MAGNYBO1","stop_name":"MAGNY-AU-BOIS","lat":"49.075211","lon":"6.1951953"},
{"id":"590","stop_id":"0:MAGNYBO2","stop_name":"MAGNY-AU-BOIS","lat":"49.0754421","lon":"6.1953055"},
{"id":"591","stop_id":"0:POURNOY1","stop_name":"POURNOY-LA-CHETIVE","lat":"49.0204262","lon":"6.1553715"},
{"id":"592","stop_id":"0:VERDUN1","stop_name":"VERDUN","lat":"49.0801277","lon":"6.0581453"},
{"id":"593","stop_id":"0:D95302","stop_name":"D953","lat":"49.1627621","lon":"6.1602069"},
{"id":"594","stop_id":"0:D95301","stop_name":"D953","lat":"49.1626996","lon":"6.1601894"},
{"id":"595","stop_id":"0:DEMBOUR1","stop_name":"DEMBOUR","lat":"49.1062866","lon":"6.1794587"},
{"id":"596","stop_id":"0:DEMBOUR2","stop_name":"DEMBOUR","lat":"49.1065252","lon":"6.1792815"},
{"id":"597","stop_id":"0:CLERY02","stop_name":"CLERY","lat":"49.1220543","lon":"6.0801421"},
{"id":"598","stop_id":"0:HOTELVI1","stop_name":"HOTEL DE VILLE","lat":"49.060125","lon":"6.154158"},
{"id":"599","stop_id":"0:QUINT01","stop_name":"CHARLES QUINT","lat":"49.0907644","lon":"6.1753689"},
{"id":"600","stop_id":"0:HOTELVI2","stop_name":"HOTEL DE VILLE","lat":"49.0599885","lon":"6.1542182"},
{"id":"601","stop_id":"0:QUINT02","stop_name":"CHARLES QUINT","lat":"49.0907306","lon":"6.1752846"},
{"id":"602","stop_id":"0:RAYMON2","stop_name":"RAYMOND MONDON","lat":"49.2008978","lon":"6.0380327"},
{"id":"603","stop_id":"0:HETRES2","stop_name":"HETRES","lat":"49.1320124","lon":"6.2089431"},
{"id":"604","stop_id":"0:ZHERGOT2","stop_name":"ZONE HERGOTT","lat":"49.1588288","lon":"6.15854"},
{"id":"605","stop_id":"0:HETRES1","stop_name":"HETRES","lat":"49.1320694","lon":"6.209166"},
{"id":"606","stop_id":"0:ZHERGOT1","stop_name":"ZONE HERGOTT","lat":"49.1597513","lon":"6.159049"},
{"id":"607","stop_id":"0:COLLEJB1","stop_name":"COLLEGE JEAN BAUCHEZ","lat":"49.1240673","lon":"6.1521152"},
{"id":"608","stop_id":"0:RAYMON1","stop_name":"RAYMOND MONDON","lat":"49.2008678","lon":"6.0377975"},
{"id":"609","stop_id":"0:GENIE1","stop_name":"GENIE","lat":"49.1054979","lon":"6.1636492"},
{"id":"610","stop_id":"0:GENIE2","stop_name":"GENIE","lat":"49.1052331","lon":"6.1634549"},
{"id":"611","stop_id":"0:CHARIT01","stop_name":"CHANOINE RITZ","lat":"48.9897758","lon":"6.0865319"},
{"id":"612","stop_id":"0:PISCINE2","stop_name":"PISCINE OLYMPIQUE","lat":"49.1004902","lon":"6.1856262"},
{"id":"613","stop_id":"0:CHARIT02","stop_name":"CHANOINE RITZ","lat":"48.989545","lon":"6.0864088"},
{"id":"614","stop_id":"0:PISCINE1","stop_name":"PISCINE OLYMPIQUE","lat":"49.1005842","lon":"6.1864954"},
{"id":"615","stop_id":"0:LADAME1","stop_name":"LA DAME","lat":"49.0989131","lon":"6.2432501"},
{"id":"616","stop_id":"0:CRIMEE2","stop_name":"CRIMEE","lat":"49.1135629","lon":"6.1135757"},
{"id":"617","stop_id":"0:PLGAULL2","stop_name":"PLACE DE GAULLE","lat":"49.0601034","lon":"6.1628519"},
{"id":"618","stop_id":"0:CRIMEE1","stop_name":"CRIMEE","lat":"49.1143612","lon":"6.1129794"},
{"id":"619","stop_id":"0:LADAME2","stop_name":"LA DAME","lat":"49.0986599","lon":"6.2439606"},
{"id":"620","stop_id":"0:PLGAULL1","stop_name":"PLACE DE GAULLE","lat":"49.0609404","lon":"6.1625059"},
{"id":"621","stop_id":"0:GRDAMES2","stop_name":"GRANGE-AUX-DAMES","lat":"49.1464566","lon":"6.1909372"},
{"id":"622","stop_id":"0:GRDAMES1","stop_name":"GRANGE-AUX-DAMES","lat":"49.1461243","lon":"6.1905738"},
{"id":"623","stop_id":"0:LOTINDU2","stop_name":"LOTISSEMENT IND","lat":"49.0897013","lon":"6.1242675"},
{"id":"624","stop_id":"0:LOTINDU1","stop_name":"LOTISSEMENT IND","lat":"49.089203","lon":"6.1233607"},
{"id":"625","stop_id":"0:CHENEVI2","stop_name":"CHENEVIERES","lat":"49.1658455","lon":"6.1896491"},
{"id":"626","stop_id":"0:CHEFER2","stop_name":"CHEMIN DE FER","lat":"49.0582742","lon":"6.1461585"},
{"id":"627","stop_id":"0:BUTTE2","stop_name":"LA BUTTE","lat":"49.1328483","lon":"6.1470002"},
{"id":"628","stop_id":"0:CHEFER1","stop_name":"CHEMIN DE FER","lat":"49.058401","lon":"6.1461251"},
{"id":"629","stop_id":"0:BELLETA2","stop_name":"BELLETANCHE","lat":"49.1097861","lon":"6.2089508"},
{"id":"630","stop_id":"0:ARAGO035","stop_name":"FRANCOIS ARAGO","lat":"49.1005102","lon":"6.2220122"},
{"id":"631","stop_id":"0:BELLETA1","stop_name":"BELLETANCHE","lat":"49.1101905","lon":"6.2096475"},
{"id":"632","stop_id":"0:SELLIER1","stop_name":"SELLIERS","lat":"49.1141899","lon":"6.2473593"},
{"id":"633","stop_id":"0:CHENEVI1","stop_name":"CHENEVIERES","lat":"49.1657567","lon":"6.1896025"},
{"id":"634","stop_id":"0:SELLIER2","stop_name":"SELLIERS","lat":"49.1140672","lon":"6.247571"},
{"id":"635","stop_id":"0:GDMAISO2","stop_name":"GRANDMAISON","lat":"49.0979507","lon":"6.1935004"},
{"id":"636","stop_id":"0:BUTTE1","stop_name":"LA BUTTE","lat":"49.1332235","lon":"6.1474481"},
{"id":"637","stop_id":"0:GDMAISO1","stop_name":"GRANDMAISON","lat":"49.0981775","lon":"6.1944462"},
{"id":"638","stop_id":"0:SIMMI527","stop_name":"SIMMINGER","lat":"49.0901424","lon":"6.1446127"},
{"id":"639","stop_id":"0:JOUSSE1","stop_name":"JOUSSE","lat":"49.1230399","lon":"6.2069613"},
{"id":"640","stop_id":"0:JOUSSE2","stop_name":"JOUSSE","lat":"49.1228527","lon":"6.2068949"},
{"id":"641","stop_id":"0:PINS02","stop_name":"PINS","lat":"49.1323847","lon":"6.2158911"},
{"id":"642","stop_id":"0:CHARRON1","stop_name":"PLACE DES CHARRONS","lat":"49.1163147","lon":"6.1830489"},
{"id":"643","stop_id":"0:CARREFO1","stop_name":"CARREFOUR","lat":"49.1444639","lon":"6.1277091"},
{"id":"644","stop_id":"0:DALES2","stop_name":"DALES","lat":"49.1333265","lon":"6.1641014"},
{"id":"645","stop_id":"0:DALES1","stop_name":"DALES","lat":"49.1328614","lon":"6.1650191"},
{"id":"646","stop_id":"0:CARREFO2","stop_name":"CARREFOUR","lat":"49.1444179","lon":"6.1277475"},
{"id":"647","stop_id":"0:SAU01","stop_name":"SAULCY","lat":"49.120732","lon":"6.1646756"},
{"id":"648","stop_id":"0:SAULNOI1","stop_name":"SAULNOIS","lat":"49.1265738","lon":"6.2218649"},
{"id":"649","stop_id":"0:TETEDOR1","stop_name":"TETE D'OR","lat":"49.1173181","lon":"6.1770925"},
{"id":"650","stop_id":"0:SAU02","stop_name":"SAULCY","lat":"49.1205221","lon":"6.1644434"},
{"id":"651","stop_id":"0:SAULNOI2","stop_name":"SAULNOIS","lat":"49.1264328","lon":"6.2220892"},
{"id":"652","stop_id":"0:11AVIAT1","stop_name":"11me D'AVIATION","lat":"49.0858277","lon":"6.1461594"},
{"id":"653","stop_id":"0:LACRETL2","stop_name":"LACRETELLE","lat":"49.1134302","lon":"6.1859559"},
{"id":"654","stop_id":"0:11AVIAT2","stop_name":"11me D'AVIATION","lat":"49.0861561","lon":"6.1453025"},
{"id":"655","stop_id":"0:LACRETL1","stop_name":"LACRETELLE","lat":"49.112743","lon":"6.1850637"},
{"id":"656","stop_id":"0:STLADRE2","stop_name":"ST-LADRE","lat":"49.0970079","lon":"6.1549228"},
{"id":"657","stop_id":"0:STLADRE1","stop_name":"ST-LADRE","lat":"49.0970855","lon":"6.1553935"},
{"id":"658","stop_id":"0:FOSSE2","stop_name":"FOSSE","lat":"49.1002409","lon":"6.1452118"},
{"id":"659","stop_id":"0:FOSSE1","stop_name":"FOSSE","lat":"49.1004533","lon":"6.145348"},
{"id":"660","stop_id":"0:CHIEULL1","stop_name":"CHIEULLES","lat":"49.1593908","lon":"6.2289017"},
{"id":"661","stop_id":"0:CHIEULL2","stop_name":"CHIEULLES","lat":"49.1594829","lon":"6.2288251"},
{"id":"662","stop_id":"0:PLARMES4","stop_name":"PLACE D'ARMES","lat":"49.1193379","lon":"6.1755713"},
{"id":"663","stop_id":"0:PLARMES2","stop_name":"PLACE D'ARMES","lat":"49.1194763","lon":"6.1754427"},
{"id":"664","stop_id":"0:COLLIGN1","stop_name":"COLLIGNON","lat":"49.1048643","lon":"6.1872931"},
{"id":"665","stop_id":"0:HMERCY1","stop_name":"HOPITAL MERCY","lat":"49.0858304","lon":"6.2438564"},
{"id":"666","stop_id":"0:NOUILLY1","stop_name":"NOUILLY CENTRE","lat":"49.1361277","lon":"6.2583623"},
{"id":"667","stop_id":"0:COLLIGN2","stop_name":"COLLIGNON","lat":"49.1041747","lon":"6.1871684"},
{"id":"668","stop_id":"0:HMERCY2","stop_name":"HOPITAL MERCY","lat":"49.0858435","lon":"6.2437065"},
{"id":"669","stop_id":"0:VIEAUX2","stop_name":"VIEILLES EAUX","lat":"49.1037742","lon":"6.1083143"},
{"id":"670","stop_id":"0:VILLERS2","stop_name":"VILLERS","lat":"49.0772137","lon":"6.3237009"},
{"id":"671","stop_id":"0:VILLERS1","stop_name":"VILLERS","lat":"49.077255","lon":"6.3244844"},
{"id":"672","stop_id":"0:WCHATEA2","stop_name":"WOIPPY CHATEAU","lat":"49.1528687","lon":"6.1452817"},
{"id":"673","stop_id":"0:WCHATEA1","stop_name":"WOIPPY CHATEAU","lat":"49.1529477","lon":"6.1450121"},
{"id":"674","stop_id":"0:BRION1","stop_name":"BRION","lat":"49.1297212","lon":"6.1330575"},
{"id":"675","stop_id":"0:JUGAN2","stop_name":"JUGAN","lat":"49.1222756","lon":"6.213344"},
{"id":"676","stop_id":"0:GRELLOI2","stop_name":"GRELLOIS","lat":"49.1183834","lon":"6.2185725"},
{"id":"677","stop_id":"0:JUGAN1","stop_name":"JUGAN","lat":"49.1226305","lon":"6.212187"},
{"id":"678","stop_id":"0:GRELLOI1","stop_name":"GRELLOIS","lat":"49.1184071","lon":"6.2186974"},
{"id":"679","stop_id":"0:BRION2","stop_name":"BRION","lat":"49.1298004","lon":"6.1341592"},
{"id":"680","stop_id":"0:SEULHOT1","stop_name":"SEULHOTTE","lat":"49.1013462","lon":"6.20825"},
{"id":"681","stop_id":"0:SEULHOT2","stop_name":"SEULHOTTE","lat":"49.1014079","lon":"6.2086376"},
{"id":"682","stop_id":"0:STSIMON1","stop_name":"ST-SIMON","lat":"49.1276891","lon":"6.151938"},
{"id":"683","stop_id":"0:STSIMON2","stop_name":"ST-SIMON","lat":"49.1274674","lon":"6.1525004"},
{"id":"684","stop_id":"0:HESTAUX1","stop_name":"HESTAUX","lat":"49.1009971","lon":"6.1916188"},
{"id":"685","stop_id":"0:BERNARD2","stop_name":"BERNARD","lat":"49.11437","lon":"6.2115103"},
{"id":"686","stop_id":"0:CLERCS01","stop_name":"RUE DES CLERCS","lat":"49.117638","lon":"6.1741785"},
{"id":"687","stop_id":"0:BERNARD1","stop_name":"BERNARD","lat":"49.1156765","lon":"6.2100971"},
{"id":"688","stop_id":"0:HESTAUX2","stop_name":"HESTAUX","lat":"49.1008922","lon":"6.1915027"},
{"id":"689","stop_id":"0:MONEU2","stop_name":"MOULIN NEUF","lat":"49.1123212","lon":"6.0951067"},
{"id":"690","stop_id":"0:MONEU1","stop_name":"MOULIN NEUF","lat":"49.1121397","lon":"6.0951644"},
{"id":"691","stop_id":"0:ARAGO002","stop_name":"FRANCOIS ARAGO","lat":"49.100741","lon":"6.2211221"},
{"id":"692","stop_id":"0:ARSMOSL2","stop_name":"ARS SUR MOSELLE","lat":"49.0759117","lon":"6.0766613"},
{"id":"693","stop_id":"0:ARSMOSL1","stop_name":"ARS SUR MOSELLE","lat":"49.0757725","lon":"6.0764749"},
{"id":"694","stop_id":"0:BRIVAGE2","stop_name":"BEAU RIVAGE","lat":"49.1160181","lon":"6.1509263"},
{"id":"695","stop_id":"0:ALGER2","stop_name":"ALGER","lat":"49.0943301","lon":"6.1348368"},
{"id":"696","stop_id":"0:ALGER1","stop_name":"ALGER","lat":"49.0944427","lon":"6.1353506"},
{"id":"697","stop_id":"0:BRIVAGE1","stop_name":"BEAU RIVAGE","lat":"49.1160741","lon":"6.1505048"},
{"id":"698","stop_id":"0:LANCEUM3","stop_name":"LANCEUMONT","lat":"49.054193","lon":"6.2745752"},
{"id":"699","stop_id":"0:PRILLE1","stop_name":"EN PRILLE","lat":"49.1095236","lon":"6.1260248"},
{"id":"700","stop_id":"0:PRILLE2","stop_name":"EN PRILLE","lat":"49.1094282","lon":"6.1251966"},
{"id":"701","stop_id":"0:SERRET2","stop_name":"SERRET","lat":"49.1099651","lon":"6.0999413"},
{"id":"702","stop_id":"0:SERRET1","stop_name":"SERRET","lat":"49.1099225","lon":"6.0995001"},
{"id":"703","stop_id":"0:VANDERN2","stop_name":"VANDERNOOT","lat":"49.0955544","lon":"6.180705"},
{"id":"704","stop_id":"0:VANDERN1","stop_name":"VANDERNOOT","lat":"49.09611","lon":"6.1807939"},
{"id":"705","stop_id":"0:LANCEUM2","stop_name":"LANCEUMONT","lat":"49.0542276","lon":"6.2752894"},
{"id":"706","stop_id":"0:LANCEUM1","stop_name":"LANCEUMONT","lat":"49.0539929","lon":"6.2756442"},
{"id":"707","stop_id":"0:AMANVMA1","stop_name":"AMANVILLERS MAIRIE","lat":"49.167366","lon":"6.0440772"},
{"id":"708","stop_id":"0:REPBS","stop_name":"REPUBLIQUE","lat":"49.1152491","lon":"6.173662"},
{"id":"709","stop_id":"0:AMANVMA2","stop_name":"AMANVILLERS MAIRIE","lat":"49.1673736","lon":"6.0437758"},
{"id":"710","stop_id":"0:VIEAUX1","stop_name":"VIEILLES EAUX","lat":"49.1038611","lon":"6.1080866"},
{"id":"711","stop_id":"0:ARIANE1","stop_name":"ARIANE","lat":"49.095489","lon":"6.2387467"},
{"id":"712","stop_id":"0:PIERNE02","stop_name":"PIERNE","lat":"49.1025729","lon":"6.1796968"},
{"id":"713","stop_id":"0:REPBW","stop_name":"REPUBLIQUE","lat":"49.115854","lon":"6.172904"},
{"id":"714","stop_id":"0:ARIANE2","stop_name":"ARIANE","lat":"49.0948526","lon":"6.2386521"},
{"id":"715","stop_id":"0:MOULIN86","stop_name":"MOULINS","lat":"49.1054795","lon":"6.1105683"},
{"id":"716","stop_id":"0:CASINO1","stop_name":"CASINO","lat":"49.1165074","lon":"6.1415112"},
{"id":"717","stop_id":"0:CASINO2","stop_name":"CASINO","lat":"49.1165926","lon":"6.1413519"},
{"id":"718","stop_id":"0:BURGER02","stop_name":"JEAN BURGER","lat":"49.1279308","lon":"6.1949513"},
{"id":"719","stop_id":"0:BURGER01","stop_name":"JEAN BURGER","lat":"49.1280811","lon":"6.1947138"},
{"id":"720","stop_id":"0:BLIDA1","stop_name":"BLIDA","lat":"49.1258875","lon":"6.1814023"},
{"id":"721","stop_id":"0:BLIDA2","stop_name":"BLIDA","lat":"49.1257452","lon":"6.1813388"},
{"id":"722","stop_id":"0:BREUIL1","stop_name":"BREUIL","lat":"49.1604541","lon":"6.2258261"},
{"id":"723","stop_id":"0:BREUIL2","stop_name":"BREUIL","lat":"49.1603751","lon":"6.2257526"},
{"id":"724","stop_id":"0:MELEZES2","stop_name":"MELEZES","lat":"49.1278526","lon":"6.2036395"},
{"id":"725","stop_id":"0:MELEZES1","stop_name":"MELEZES","lat":"49.1281675","lon":"6.2033025"},
{"id":"726","stop_id":"0:POUILLY1","stop_name":"POUILLY","lat":"49.0498169","lon":"6.1884013"},
{"id":"727","stop_id":"0:PONSARD1","stop_name":"PONSARD","lat":"49.0895871","lon":"6.1472644"},
{"id":"728","stop_id":"0:PONSARD2","stop_name":"PONSARD","lat":"49.0896342","lon":"6.1471851"},
{"id":"729","stop_id":"0:RBOULAY1","stop_name":"ROUTE DE BOULAY","lat":"49.1265703","lon":"6.2683464"},
{"id":"730","stop_id":"0:RD661","stop_name":"RD66","lat":"49.0313316","lon":"6.0977346"},
{"id":"731","stop_id":"0:SCHAFF01","stop_name":"SCHAFF","lat":"49.0999704","lon":"6.1548428"},
{"id":"732","stop_id":"0:RBOULAY2","stop_name":"ROUTE DE BOULAY","lat":"49.1264961","lon":"6.2677658"},
{"id":"733","stop_id":"0:SCHAFF02","stop_name":"SCHAFF","lat":"49.1000959","lon":"6.1545216"},
{"id":"734","stop_id":"0:MER02","stop_name":"HOPITAL MERCY","lat":"49.0846432","lon":"6.2421654"},
{"id":"735","stop_id":"0:3EVECHES","stop_name":"TROIS EVECHES","lat":"49.106299","lon":"6.1918905"},
{"id":"736","stop_id":"0:ALSACE2","stop_name":"ALSACE","lat":"49.0978414","lon":"6.1295817"},
{"id":"737","stop_id":"0:VECRIN1","stop_name":"VECRIN","lat":"49.0915187","lon":"6.2667389"},
{"id":"738","stop_id":"0:ALSACE1","stop_name":"ALSACE","lat":"49.0976376","lon":"6.1291172"},
{"id":"739","stop_id":"0:VECRIN2","stop_name":"VECRIN","lat":"49.0915584","lon":"6.2669332"},
{"id":"740","stop_id":"0:MER01","stop_name":"HOPITAL MERCY","lat":"49.0844541","lon":"6.2428386"},
{"id":"741","stop_id":"0:ROSEAUX1","stop_name":"ROSEAUX","lat":"49.0712786","lon":"6.1857079"},
{"id":"742","stop_id":"0:ROSEAUX2","stop_name":"ROSEAUX","lat":"49.0711957","lon":"6.1867985"},
{"id":"743","stop_id":"0:TELEGRA2","stop_name":"TELEGRAPHE","lat":"49.1468287","lon":"6.0031229"},
{"id":"744","stop_id":"0:TELEGRA1","stop_name":"TELEGRAPHE","lat":"49.1468287","lon":"6.0031229"},
{"id":"745","stop_id":"0:BER01","stop_name":"GEORGES BERNANOS","lat":"49.1332686","lon":"6.1690344"},
{"id":"746","stop_id":"0:LEMOYNE2","stop_name":"LE MOYNE","lat":"49.1313521","lon":"6.1567134"},
{"id":"747","stop_id":"0:BER02","stop_name":"GEORGES BERNANOS","lat":"49.1334005","lon":"6.1688094"},
{"id":"748","stop_id":"0:LEMOYNE1","stop_name":"LE MOYNE","lat":"49.1314164","lon":"6.1563196"},
{"id":"749","stop_id":"0:SUGNON2","stop_name":"SUGNON","lat":"49.09413","lon":"6.1634212"},
{"id":"750","stop_id":"0:SUGNON1","stop_name":"SUGNON","lat":"49.0941458","lon":"6.1631618"},
{"id":"751","stop_id":"0:WOIPHOT2","stop_name":"HOTEL DE VILLE","lat":"49.1513749","lon":"6.1501017"},
{"id":"752","stop_id":"0:LOGES2","stop_name":"LOGES","lat":"49.0991263","lon":"6.1582036"},
{"id":"753","stop_id":"0:NJUNG1","stop_name":"NICOLAS JUNG","lat":"49.1336845","lon":"6.1525223"},
{"id":"754","stop_id":"0:JOSEPH1","stop_name":"CROIX ST JOSEPH","lat":"49.0589779","lon":"6.1587713"},
{"id":"755","stop_id":"0:WOIPHOT1","stop_name":"HOTEL DE VILLE","lat":"49.1512771","lon":"6.1500546"},
{"id":"756","stop_id":"0:LUXMB","stop_name":"SQUARE DU LUXEMBOURG","lat":"49.1213263","lon":"6.1687562"},
{"id":"757","stop_id":"0:GARENNE2","stop_name":"GARENNES","lat":"49.0764691","lon":"6.1465092"},
{"id":"758","stop_id":"0:GARENNE1","stop_name":"GARENNES","lat":"49.0767397","lon":"6.1464845"},
{"id":"759","stop_id":"0:MECLEUV1","stop_name":"MECLEUVES","lat":"49.0423998","lon":"6.2681223"},
{"id":"760","stop_id":"0:MECLEUV2","stop_name":"MECLEUVES","lat":"49.0422467","lon":"6.2684549"},
{"id":"761","stop_id":"0:ROUSSEL1","stop_name":"ROUSSEL","lat":"49.1354895","lon":"6.1399339"},
{"id":"762","stop_id":"0:ROUSSEL2","stop_name":"ROUSSEL","lat":"49.1354477","lon":"6.1394651"},
{"id":"763","stop_id":"0:MANGENO1","stop_name":"MY MANGENOT","lat":"49.1279101","lon":"6.2253896"},
{"id":"764","stop_id":"0:MANGENO2","stop_name":"MY MANGENOT","lat":"49.1278175","lon":"6.2258226"},
{"id":"765","stop_id":"0:LORRYGR1","stop_name":"LORRY GRAND RUE","lat":"49.1417799","lon":"6.1184542"},
{"id":"766","stop_id":"0:LUETTE2","stop_name":"LUETTE","lat":"49.0854272","lon":"6.1483956"},
{"id":"767","stop_id":"0:LORRYGR2","stop_name":"LORRY GRAND RUE","lat":"49.1417835","lon":"6.1183173"},
{"id":"768","stop_id":"0:LUETTE1","stop_name":"LUETTE","lat":"49.0852507","lon":"6.148604"},
{"id":"769","stop_id":"0:BOILEAU1","stop_name":"BOILEAU","lat":"49.1428268","lon":"6.1686045"},
{"id":"770","stop_id":"0:BOILEAU2","stop_name":"BOILEAU","lat":"49.142959","lon":"6.1693944"},
{"id":"771","stop_id":"0:NJUNG2","stop_name":"NICOLAS JUNG","lat":"49.1333529","lon":"6.1531603"},
{"id":"772","stop_id":"0:PONTROU1","stop_name":"PONT ROUGE","lat":"49.1148252","lon":"6.1890026"},
{"id":"773","stop_id":"0:LOGES1","stop_name":"LOGES","lat":"49.0987842","lon":"6.1592379"},
{"id":"774","stop_id":"0:PONTROU2","stop_name":"PONT ROUGE","lat":"49.1147117","lon":"6.1888722"},
{"id":"775","stop_id":"0:POULMAI2","stop_name":"POULMAIRE","lat":"49.1511576","lon":"6.1669471"},
{"id":"776","stop_id":"0:POULMAI1","stop_name":"POULMAIRE","lat":"49.1511135","lon":"6.1658881"},
{"id":"777","stop_id":"0:CHESNYM3","stop_name":"CHESNY MAIRIE","lat":"49.0542499","lon":"6.2416348"},
{"id":"778","stop_id":"0:CHESNYM1","stop_name":"CHESNY MAIRIE","lat":"49.0545646","lon":"6.2423117"},
{"id":"779","stop_id":"0:PREFECT1","stop_name":"PREFECTURE","lat":"49.1217091","lon":"6.1743731"},
{"id":"780","stop_id":"0:STJEGLI1","stop_name":"ST-JULIEN EGLISE","lat":"49.1342893","lon":"6.2025156"},
{"id":"781","stop_id":"0:PREFECT2","stop_name":"PREFECTURE","lat":"49.1213191","lon":"6.1748291"},
{"id":"782","stop_id":"0:SALETTE1","stop_name":"SALETTE","lat":"49.1528906","lon":"6.2467554"},
{"id":"783","stop_id":"0:STJEGLI2","stop_name":"ST-JULIEN EGLISE","lat":"49.1344793","lon":"6.2028153"},
{"id":"784","stop_id":"0:GRIGY1","stop_name":"GRIGY","lat":"49.0951352","lon":"6.2207737"},
{"id":"785","stop_id":"0:GRIGY2","stop_name":"GRIGY","lat":"49.0950389","lon":"6.2206718"},
{"id":"786","stop_id":"0:SAVOIE2","stop_name":"SAVOIE","lat":"49.0960577","lon":"6.1272405"},
{"id":"787","stop_id":"0:SAVOIE1","stop_name":"SAVOIE","lat":"49.0961433","lon":"6.1274101"},
{"id":"788","stop_id":"0:MAGCES1","stop_name":"MAGNY CES","lat":"49.0738523","lon":"6.1863865"},
{"id":"789","stop_id":"0:VANY1","stop_name":"VANY","lat":"49.1565082","lon":"6.2390662"},
{"id":"790","stop_id":"0:GRDRUE1","stop_name":"GRAND RUE","lat":"49.168606","lon":"6.0491172"},
{"id":"791","stop_id":"0:GRDRUE2","stop_name":"GRAND RUE","lat":"49.1687115","lon":"6.0485059"},
{"id":"792","stop_id":"0:POSTEDF1","stop_name":"POSTE EDF","lat":"49.1519398","lon":"6.2137999"},
{"id":"793","stop_id":"0:VANY2","stop_name":"VANY","lat":"49.1561891","lon":"6.2395539"},
{"id":"794","stop_id":"0:POSTEDF2","stop_name":"POSTE EDF","lat":"49.1519398","lon":"6.2137999"},
{"id":"795","stop_id":"0:FELIX420","stop_name":"FELIX MARECHAL","lat":"49.1297415","lon":"6.1381457"},
{"id":"796","stop_id":"0:STROCH1","stop_name":"ST-ROCH","lat":"49.0791057","lon":"6.1840793"},
{"id":"797","stop_id":"0:STROCH2","stop_name":"ST-ROCH","lat":"49.078387","lon":"6.1836927"},
{"id":"798","stop_id":"0:BRG01","stop_name":"HENRI BERGSON","lat":"49.108448","lon":"6.2206281"},
{"id":"799","stop_id":"0:BRG02","stop_name":"HENRI BERGSON","lat":"49.1085547","lon":"6.2206758"},
{"id":"800","stop_id":"0:LYAUTE99","stop_name":"LYAUTEY","lat":"49.0939141","lon":"6.1675187"},
{"id":"801","stop_id":"0:ROOSEVE2","stop_name":"ROOSEVELT","lat":"49.0770072","lon":"6.1939773"},
{"id":"802","stop_id":"0:ROOSEVE1","stop_name":"ROOSEVELT","lat":"49.0772372","lon":"6.193786"},
{"id":"803","stop_id":"0:SEMINAI1","stop_name":"SEMINAIRE","lat":"49.0978919","lon":"6.1606635"},
{"id":"804","stop_id":"0:PLACEPU2","stop_name":"PLACE PUBLIQUE","lat":"49.1546212","lon":"6.1180481"},
{"id":"805","stop_id":"0:LARGANT2","stop_name":"LARGANTIER","lat":"49.0621903","lon":"6.1464371"},
{"id":"806","stop_id":"0:PLACEPU1","stop_name":"PLACE PUBLIQUE","lat":"49.1545735","lon":"6.1181549"},
{"id":"807","stop_id":"0:PREFECT3","stop_name":"PREFECTURE","lat":"49.121525","lon":"6.1748691"},
{"id":"808","stop_id":"0:LARGANT1","stop_name":"LARGANTIER","lat":"49.0628501","lon":"6.1463265"},
{"id":"809","stop_id":"0:SEMINAI2","stop_name":"SEMINAIRE","lat":"49.0972803","lon":"6.1599684"},
{"id":"810","stop_id":"0:GOUSSEL1","stop_name":"GOUSSEL","lat":"49.1015623","lon":"6.1943945"},
{"id":"811","stop_id":"0:GOUSSEL2","stop_name":"GOUSSEL","lat":"49.1014782","lon":"6.1955267"},
{"id":"812","stop_id":"0:ROIGEO89","stop_name":"ROI GEORGE","lat":"49.111092","lon":"6.1719544"},
{"id":"813","stop_id":"0:CHAVEAU1","stop_name":"LE CHAVEAU","lat":"49.0320453","lon":"6.1508637"},
{"id":"814","stop_id":"0:NOUILLO2","stop_name":"NOUILLONS","lat":"49.1120571","lon":"6.0973251"},
{"id":"815","stop_id":"0:CHAVEAU2","stop_name":"LE CHAVEAU","lat":"49.0320964","lon":"6.1509763"},
{"id":"816","stop_id":"0:RTBORNY1","stop_name":"ROUTE DE BORNY","lat":"49.1150151","lon":"6.1920163"},
{"id":"817","stop_id":"0:ARMOISI1","stop_name":"ARMOISIERES","lat":"49.0755009","lon":"6.1897068"},
{"id":"818","stop_id":"0:ARMOISI2","stop_name":"ARMOISIERES","lat":"49.0773542","lon":"6.1893825"},
{"id":"819","stop_id":"0:NOUILLO1","stop_name":"NOUILLONS","lat":"49.1118487","lon":"6.0973812"},
{"id":"820","stop_id":"0:RTBORNY2","stop_name":"ROUTE DE BORNY","lat":"49.1150304","lon":"6.1927986"},
{"id":"821","stop_id":"0:LITALDU1","stop_name":"HOTEL DE VILLE","lat":"49.0999743","lon":"6.1526368"},
{"id":"822","stop_id":"0:LITALDU2","stop_name":"HOTEL DE VILLE","lat":"49.0998363","lon":"6.1520665"},
{"id":"823","stop_id":"0:CHAMBIE1","stop_name":"CHAMBIERE","lat":"49.1280081","lon":"6.1855912"},
{"id":"824","stop_id":"0:CHAMBIE2","stop_name":"CHAMBIERE","lat":"49.1274442","lon":"6.1844596"},
{"id":"825","stop_id":"0:PAQUET2","stop_name":"PAQUET","lat":"49.135085","lon":"6.1567626"},
{"id":"826","stop_id":"0:LUXE","stop_name":"SQUARE DU LUXEMBOURG","lat":"49.1213081","lon":"6.1680833"},
{"id":"827","stop_id":"0:PAQUET1","stop_name":"PAQUET","lat":"49.1348841","lon":"6.1568738"},
{"id":"828","stop_id":"0:BERNE1","stop_name":"BERNE","lat":"49.1228575","lon":"6.1938706"},
{"id":"829","stop_id":"0:MINE01","stop_name":"MINE","lat":"49.1980998","lon":"6.0348205"},
{"id":"830","stop_id":"0:MINE02","stop_name":"MINE","lat":"49.1980069","lon":"6.0349386"},
{"id":"831","stop_id":"0:COETLO02","stop_name":"COETLOSQUET","lat":"49.1144088","lon":"6.1768593"},
{"id":"832","stop_id":"0:NOTRDA02","stop_name":"NOTRE DAME","lat":"48.9862862","lon":"6.0850529"},
{"id":"833","stop_id":"0:BERNE2","stop_name":"BERNE","lat":"49.1229576","lon":"6.1941647"},
{"id":"834","stop_id":"0:NOTRDA01","stop_name":"NOTRE DAME","lat":"48.9862108","lon":"6.0851852"},
{"id":"835","stop_id":"0:GARGAN01","stop_name":"GARGAN","lat":"49.0757747","lon":"6.2272965"},
{"id":"836","stop_id":"0:COETLO01","stop_name":"COETLOSQUET","lat":"49.1145087","lon":"6.1768243"},
{"id":"837","stop_id":"0:GARGAN02","stop_name":"GARGAN","lat":"49.0757176","lon":"6.2267451"},
{"id":"838","stop_id":"0:GAREWOI2","stop_name":"GARE DE WOIPPY","lat":"49.1486804","lon":"6.1554107"},
{"id":"839","stop_id":"0:FOUGERE2","stop_name":"FOUGERES","lat":"49.1217988","lon":"6.2190589"},
{"id":"840","stop_id":"0:FOUGERE1","stop_name":"FOUGERES","lat":"49.1225481","lon":"6.2189684"},
{"id":"841","stop_id":"0:GAREWOI1","stop_name":"GARE DE WOIPPY","lat":"49.1486265","lon":"6.1554074"},
{"id":"842","stop_id":"0:4BORNES2","stop_name":"QUATRE BORNES","lat":"49.1394682","lon":"6.1536287"},
{"id":"843","stop_id":"0:4BORNES1","stop_name":"QUATRE BORNES","lat":"49.1392124","lon":"6.1534349"},
{"id":"844","stop_id":"0:CUGNOT1","stop_name":"CUGNOT","lat":"49.0854992","lon":"6.1634699"},
{"id":"845","stop_id":"0:PTSOEUR1","stop_name":"PETITES SOEURS","lat":"49.119143","lon":"6.2046226"},
{"id":"846","stop_id":"0:PEPINIE1","stop_name":"PEPINIERES","lat":"49.1140773","lon":"6.1549343"},
{"id":"847","stop_id":"0:PEPINIE2","stop_name":"PEPINIERES","lat":"49.1143562","lon":"6.1545948"},
{"id":"848","stop_id":"0:SABLIER2","stop_name":"SABLIERES","lat":"49.0862729","lon":"6.1631335"},
{"id":"849","stop_id":"0:PTSOEUR3","stop_name":"PETITES SOEURS","lat":"49.1183632","lon":"6.2038341"},
{"id":"850","stop_id":"0:SABLIER1","stop_name":"SABLIERES","lat":"49.0864461","lon":"6.1637331"},
{"id":"851","stop_id":"0:PTSOEUR2","stop_name":"PETITES SOEURS","lat":"49.1191453","lon":"6.2052122"},
{"id":"852","stop_id":"0:PTSOEUR4","stop_name":"PETITES SOEURS","lat":"49.1184512","lon":"6.203908"},
{"id":"853","stop_id":"0:JPJEAN1","stop_name":"JP JEAN","lat":"49.1259002","lon":"6.2174491"},
{"id":"854","stop_id":"0:MNVE1","stop_name":"MAISON NEUVE","lat":"49.1102801","lon":"6.0912019"},
{"id":"855","stop_id":"0:ROIGEO68","stop_name":"ROI GEORGE","lat":"49.1100148","lon":"6.1704904"},
{"id":"856","stop_id":"0:VALLADI1","stop_name":"PLACE VALLADIER","lat":"49.123932","lon":"6.1767441"},
{"id":"857","stop_id":"0:JLAURAI1","stop_name":"JEAN LAURAIN","lat":"49.1531519","lon":"6.1399489"},
{"id":"858","stop_id":"0:MNVE2","stop_name":"MAISON NEUVE","lat":"49.1103458","lon":"6.0910962"},
{"id":"859","stop_id":"0:CHOCOL01","stop_name":"CHOCOLATERIE","lat":"49.0885339","lon":"6.1719167"},
{"id":"860","stop_id":"0:SEILLE1","stop_name":"SEILLE","lat":"49.1115619","lon":"6.1861699"},
{"id":"861","stop_id":"0:CHOCOL02","stop_name":"CHOCOLATERIE","lat":"49.088742","lon":"6.1718746"},
{"id":"862","stop_id":"0:GRORMES1","stop_name":"GRANGE AUX ORMES","lat":"49.0808527","lon":"6.1464602"},
{"id":"863","stop_id":"0:GRORMES2","stop_name":"GRANGE AUX ORMES","lat":"49.0806694","lon":"6.1462436"},
{"id":"864","stop_id":"0:FAURNEL2","stop_name":"FAURNEL","lat":"49.0998797","lon":"6.2427761"},
{"id":"865","stop_id":"0:FAURNEL1","stop_name":"FAURNEL","lat":"49.1004915","lon":"6.2431159"},
{"id":"866","stop_id":"0:SEILLE2","stop_name":"SEILLE","lat":"49.1114293","lon":"6.1860795"},
{"id":"867","stop_id":"0:LESCLOS2","stop_name":"LES CLOS","lat":"49.0729194","lon":"6.148047"},
{"id":"868","stop_id":"0:LESCLOS1","stop_name":"LES CLOS","lat":"49.0738433","lon":"6.1478154"},
{"id":"869","stop_id":"0:VERLIN2","stop_name":"VERLIN","lat":"49.1133309","lon":"6.0278948"},
{"id":"870","stop_id":"0:VERLIN1","stop_name":"VERLIN","lat":"49.1133309","lon":"6.0278948"},
{"id":"871","stop_id":"0:MASARI2","stop_name":"MASARIEULLES","lat":"49.203419","lon":"6.0465014"},
{"id":"872","stop_id":"0:MASARI1","stop_name":"MASARIEULLES","lat":"49.2035409","lon":"6.0466596"},
{"id":"873","stop_id":"0:LUXS","stop_name":"SQUARE DU LUXEMBOURG","lat":"49.1215442","lon":"6.1680018"},
{"id":"874","stop_id":"0:JOB02","stop_name":"INTENDANTS JOBA","lat":"49.1411892","lon":"6.1655282"},
{"id":"875","stop_id":"0:JOB01","stop_name":"INTENDANTS JOBA","lat":"49.1414835","lon":"6.1652856"},
{"id":"876","stop_id":"0:BELLEVU2","stop_name":"BELLEVUE","lat":"49.172237","lon":"6.152991"},
{"id":"877","stop_id":"0:BELLEVU1","stop_name":"BELLEVUE","lat":"49.1722395","lon":"6.1528951"},
{"id":"878","stop_id":"0:GRIMONT1","stop_name":"GRIMONT","lat":"49.1404839","lon":"6.2175462"},
{"id":"879","stop_id":"0:VALERY1","stop_name":"VALERY","lat":"49.1105755","lon":"6.2184712"},
{"id":"880","stop_id":"0:VALERY2","stop_name":"VALERY","lat":"49.1106385","lon":"6.2181325"},
{"id":"881","stop_id":"0:CONSERV1","stop_name":"CONSERVATOIRE","lat":"49.1206834","lon":"6.1811787"},
{"id":"882","stop_id":"0:ROC02","stop_name":"P+R ROCHAMBEAU","lat":"49.129653","lon":"6.1703352"},
{"id":"883","stop_id":"0:STLOUI07","stop_name":"ST-LOUIS","lat":"49.1166866","lon":"6.179535"},
{"id":"884","stop_id":"0:CHPETRE1","stop_name":"CHARLES PETRE","lat":"49.1050773","lon":"6.1666387"},
{"id":"885","stop_id":"0:JURA2","stop_name":"JURA","lat":"49.1184787","lon":"6.2005099"},
{"id":"886","stop_id":"0:CHPETRE2","stop_name":"CHARLES PETRE","lat":"49.1053917","lon":"6.1666579"},
{"id":"887","stop_id":"0:JMICHEL1","stop_name":"JULES MICHELET","lat":"49.1076242","lon":"6.2285265"},
{"id":"888","stop_id":"0:JACINTH1","stop_name":"JACINTHES","lat":"49.1239548","lon":"6.2259111"},
{"id":"889","stop_id":"0:POTIERS2","stop_name":"POTIERS D'ETAIN","lat":"49.1163217","lon":"6.2437231"},
{"id":"890","stop_id":"0:JACINTH2","stop_name":"JACINTHES","lat":"49.1239157","lon":"6.2263611"},
{"id":"891","stop_id":"0:JURA1","stop_name":"JURA","lat":"49.1184844","lon":"6.2006337"},
{"id":"892","stop_id":"0:ROC01","stop_name":"P+R ROCHAMBEAU","lat":"49.1296124","lon":"6.1701681"},
{"id":"893","stop_id":"0:CEDRBL01","stop_name":"CEDRE BLEU","lat":"49.0338506","lon":"6.158186"},
{"id":"894","stop_id":"0:CEDRBL02","stop_name":"CEDRE BLEU","lat":"49.033778","lon":"6.158209"},
{"id":"895","stop_id":"0:PIVOINE1","stop_name":"PIVOINES","lat":"49.1258585","lon":"6.2274008"},
{"id":"896","stop_id":"0:RD662","stop_name":"RD66","lat":"49.0312881","lon":"6.0969793"},
{"id":"897","stop_id":"0:CORBON2","stop_name":"CORBON","lat":"49.0677344","lon":"6.2564613"},
{"id":"898","stop_id":"0:MORLOT2","stop_name":"MORLOT","lat":"49.141107","lon":"6.150149"},
{"id":"899","stop_id":"0:CORBON1","stop_name":"CORBON","lat":"49.0675331","lon":"6.2565856"},
{"id":"900","stop_id":"0:MORLOT1","stop_name":"MORLOT","lat":"49.1410956","lon":"6.1509301"},
{"id":"901","stop_id":"0:CARRIER4","stop_name":"CARRIERES","lat":"49.1298518","lon":"6.2086447"},
{"id":"902","stop_id":"0:CARRIER2","stop_name":"CARRIERES","lat":"49.1299188","lon":"6.2098418"},
{"id":"903","stop_id":"0:LOTHAIR2","stop_name":"LOTHAIRE","lat":"49.0995628","lon":"6.180211"},
{"id":"904","stop_id":"0:CARRIER1","stop_name":"CARRIERES","lat":"49.1301107","lon":"6.2090584"},
{"id":"905","stop_id":"0:LOTHAIR1","stop_name":"LOTHAIRE","lat":"49.0992764","lon":"6.1804949"},
{"id":"906","stop_id":"0:CHAMPAG1","stop_name":"CHAMPAGNE","lat":"49.0414892","lon":"6.1606358"},
{"id":"907","stop_id":"0:COUVENT1","stop_name":"COUVENTS","lat":"49.1033006","lon":"6.1534421"},
{"id":"908","stop_id":"0:CHAMPAG2","stop_name":"CHAMPAGNE","lat":"49.0412948","lon":"6.160843"},
{"id":"909","stop_id":"0:3HAIES1","stop_name":"TROIS HAIES","lat":"49.090658","lon":"6.1231195"},
{"id":"910","stop_id":"0:AVMAGNY1","stop_name":"AVENUE DE MAGNY","lat":"49.0641636","lon":"6.1672216"},
{"id":"911","stop_id":"0:3HAIES2","stop_name":"TROIS HAIES","lat":"49.0907139","lon":"6.1226981"},
{"id":"912","stop_id":"0:COUVENT2","stop_name":"COUVENTS","lat":"49.1036003","lon":"6.1523092"},
{"id":"913","stop_id":"0:JUIN2","stop_name":"JUIN","lat":"49.1184084","lon":"6.1899497"},
{"id":"914","stop_id":"0:POTIERS1","stop_name":"POTIERS D'ETAIN","lat":"49.1157206","lon":"6.243658"},
{"id":"915","stop_id":"0:JUIN1","stop_name":"JUIN","lat":"49.1181324","lon":"6.1898368"},
{"id":"916","stop_id":"0:GAR02","stop_name":"GARE","lat":"49.1104066","lon":"6.1774637"},
{"id":"917","stop_id":"0:GAR01","stop_name":"GARE","lat":"49.1103667","lon":"6.177612"},
{"id":"918","stop_id":"0:TIVO1","stop_name":"TIVOLI","lat":"49.0993104","lon":"6.1887193"},
{"id":"919","stop_id":"0:TIVO2","stop_name":"TIVOLI","lat":"49.0994021","lon":"6.1886564"},
{"id":"920","stop_id":"0:ZACPEL02","stop_name":"ZAC PELTRE","lat":"49.0709103","lon":"6.2284867"},
{"id":"921","stop_id":"0:ZACPEL01","stop_name":"ZAC PELTRE","lat":"49.0711267","lon":"6.2284728"},
{"id":"922","stop_id":"0:ALC02","stop_name":"FELIX ALCAN","lat":"49.1127782","lon":"6.1976356"},
{"id":"923","stop_id":"0:ALC01","stop_name":"FELIX ALCAN","lat":"49.1125229","lon":"6.1991139"},
{"id":"924","stop_id":"0:DUPLOYE1","stop_name":"DUPLOYE","lat":"49.1094334","lon":"6.1890682"},
{"id":"925","stop_id":"0:ROIGEO34","stop_name":"ROI GEORGE","lat":"49.1103664","lon":"6.1691002"},
{"id":"926","stop_id":"0:CRRD601","stop_name":"CROISEMENT RD6","lat":"49.0930361","lon":"6.0948457"},
{"id":"927","stop_id":"0:GENERAL2","stop_name":"GENERAL FRERE","lat":"49.1002058","lon":"6.2061375"},
{"id":"928","stop_id":"0:CRRD602","stop_name":"CROISEMENT RD6","lat":"49.0938392","lon":"6.0954554"},
{"id":"929","stop_id":"0:GENERAL1","stop_name":"GENERAL FRERE","lat":"49.1000537","lon":"6.2054292"},
{"id":"930","stop_id":"0:CLERY1","stop_name":"CLERY","lat":"49.1211785","lon":"6.080611"},
{"id":"931","stop_id":"0:MAHIRE1","stop_name":"MAHIRE","lat":"49.0501","lon":"6.1845168"},
{"id":"932","stop_id":"0:MICHANG1","stop_name":"MICHEL ANGE","lat":"49.0593629","lon":"6.1690919"},
{"id":"933","stop_id":"0:JMICHEL2","stop_name":"JULES MICHELET","lat":"49.1074308","lon":"6.2286926"},
{"id":"934","stop_id":"0:TIGNO266","stop_name":"TIGNOMONT","lat":"49.1258828","lon":"6.1593963"},
{"id":"935","stop_id":"0:PELTRE2","stop_name":"PELTRE GARE","lat":"49.0743791","lon":"6.2226347"},
{"id":"936","stop_id":"0:PELTRE1","stop_name":"PELTRE GARE","lat":"49.0743323","lon":"6.2227003"},
{"id":"937","stop_id":"0:CHASG01","stop_name":"CHATEL ST GERMAIN","lat":"49.1248696","lon":"6.0787741"},
{"id":"938","stop_id":"0:VAUXMAI1","stop_name":"VAUX","lat":"49.0930772","lon":"6.0806397"},
{"id":"939","stop_id":"0:CHASG02","stop_name":"CHATEL ST GERMAIN","lat":"49.125206","lon":"6.0793424"},
{"id":"940","stop_id":"0:COLIBRI2","stop_name":"COLIBRI","lat":"49.1301547","lon":"6.1587931"},
{"id":"941","stop_id":"0:COLIBRI1","stop_name":"COLIBRI","lat":"49.1302812","lon":"6.1584306"},
{"id":"942","stop_id":"0:OFFICET1","stop_name":"OFFICE DE TOURISME","lat":"49.1200698","lon":"6.1764799"},
{"id":"943","stop_id":"0:COINSEI1","stop_name":"COIN-SUR-SEILLE","lat":"49.0090605","lon":"6.1598107"},
{"id":"944","stop_id":"0:AULNES1","stop_name":"AULNES","lat":"49.1272568","lon":"6.2081"},
{"id":"945","stop_id":"0:AULNES2","stop_name":"AULNES","lat":"49.1273403","lon":"6.2076664"},
{"id":"946","stop_id":"0:ROGET2","stop_name":"ROGET","lat":"49.1492877","lon":"6.1696172"},
{"id":"947","stop_id":"0:ROGET1","stop_name":"ROGET","lat":"49.1491674","lon":"6.1690612"},
{"id":"948","stop_id":"0:RIMPORT1","stop_name":"RIMPORT","lat":"49.1241429","lon":"6.181021"},
{"id":"949","stop_id":"0:SEGOLEN1","stop_name":"STE-SEGOLENE","lat":"49.1212443","lon":"6.1797051"},
{"id":"950","stop_id":"0:RIMPORT2","stop_name":"RIMPORT","lat":"49.1241964","lon":"6.1813807"},
{"id":"951","stop_id":"0:CHILOU02","stop_name":"LES CHILOUX","lat":"49.148823","lon":"6.1430881"},
{"id":"952","stop_id":"0:DAGA1","stop_name":"DAGA","lat":"49.1366276","lon":"6.1559242"},
{"id":"953","stop_id":"0:DAGA2","stop_name":"DAGA","lat":"49.1365166","lon":"6.1560408"},
{"id":"954","stop_id":"0:SIMMI689","stop_name":"SIMMINGER","lat":"49.0899196","lon":"6.1445307"},
{"id":"955","stop_id":"0:PLCHAM02","stop_name":"PLACE DE CHAMBRE","lat":"49.1203156","lon":"6.1739861"},
{"id":"956","stop_id":"0:PLCHAM01","stop_name":"PLACE DE CHAMBRE","lat":"49.1203192","lon":"6.1738493"},
{"id":"957","stop_id":"0:CEDRES2","stop_name":"CEDRES","lat":"49.1274317","lon":"6.2116621"},
{"id":"958","stop_id":"0:SIMMI690","stop_name":"SIMMINGER","lat":"49.0898409","lon":"6.1447863"},
{"id":"959","stop_id":"0:CEDRES1","stop_name":"CEDRES","lat":"49.1273981","lon":"6.2119068"},
{"id":"960","stop_id":"0:LORIENT1","stop_name":"LORIENT","lat":"49.1224641","lon":"6.22479"},
{"id":"961","stop_id":"0:LORIENT2","stop_name":"LORIENT","lat":"49.1226269","lon":"6.2254308"},
{"id":"962","stop_id":"0:CHILOU01","stop_name":"LES CHILOUX","lat":"49.1486742","lon":"6.1429282"},
{"id":"963","stop_id":"0:CIM01","stop_name":"CIMETIERE DE L'EST","lat":"49.1097481","lon":"6.2036303"},
{"id":"964","stop_id":"0:LORRAIN2","stop_name":"LORRAINE","lat":"49.1011986","lon":"6.1080502"},
{"id":"965","stop_id":"0:ROTONDE2","stop_name":"ROTONDE","lat":"49.0871893","lon":"6.1170469"},
{"id":"966","stop_id":"0:CIM02","stop_name":"CIMETIERE DE L'EST","lat":"49.1093835","lon":"6.2041423"},
{"id":"967","stop_id":"0:LORRAIN1","stop_name":"LORRAINE","lat":"49.1027083","lon":"6.1091686"},
{"id":"968","stop_id":"0:ROTONDE1","stop_name":"ROTONDE","lat":"49.0880754","lon":"6.1189634"},
{"id":"969","stop_id":"0:HERMITE1","stop_name":"HERMITE","lat":"49.1059301","lon":"6.187482"},
{"id":"970","stop_id":"0:PONTIFF2","stop_name":"PONTIFFROY","lat":"49.1274324","lon":"6.1750393"},
{"id":"971","stop_id":"0:PONTIFF1","stop_name":"PONTIFFROY","lat":"49.1273328","lon":"6.1754034"},
{"id":"972","stop_id":"0:CONSTAN1","stop_name":"CONSTANTINE","lat":"49.0920076","lon":"6.1255438"},
{"id":"973","stop_id":"0:FRIERES1","stop_name":"FRIERES","lat":"49.1402275","lon":"6.1355995"},
{"id":"974","stop_id":"0:VACONS1","stop_name":"VACONS","lat":"49.0874206","lon":"6.1643132"},
{"id":"975","stop_id":"0:VACONS2","stop_name":"VACONS","lat":"49.0874867","lon":"6.1645365"},
{"id":"976","stop_id":"0:CONSTAN2","stop_name":"CONSTANTINE","lat":"49.0918754","lon":"6.1254399"},
{"id":"977","stop_id":"0:FRIERES2","stop_name":"FRIERES","lat":"49.1403906","lon":"6.1352116"},
{"id":"978","stop_id":"0:PLATA2","stop_name":"PLATANES","lat":"49.1267461","lon":"6.2019394"},
{"id":"979","stop_id":"0:GLISSU1","stop_name":"GLISSU","lat":"49.0558389","lon":"6.1198181"},
{"id":"980","stop_id":"0:GLISSU2","stop_name":"GLISSU","lat":"49.0558651","lon":"6.119847"},
{"id":"981","stop_id":"0:ZACGRAV1","stop_name":"ZAC LES GRAVIERES","lat":"49.0774664","lon":"6.1130653"},
{"id":"982","stop_id":"0:PREVOTE1","stop_name":"PREVOTE","lat":"49.0928749","lon":"6.1563977"},
{"id":"983","stop_id":"0:PREVOTE2","stop_name":"PREVOTE","lat":"49.0916157","lon":"6.1553482"},
{"id":"984","stop_id":"0:TIVOLI2","stop_name":"TIVOLI","lat":"49.0996684","lon":"6.1898102"},
{"id":"985","stop_id":"0:PIERRET2","stop_name":"PIERRET","lat":"49.1635902","lon":"6.1885085"},
{"id":"986","stop_id":"0:PIERRET1","stop_name":"PIERRET","lat":"49.1640889","lon":"6.1887039"},
{"id":"987","stop_id":"0:STAGATH2","stop_name":"STE-AGATHE","lat":"49.1641427","lon":"6.1538837"},
{"id":"988","stop_id":"0:STAGATH1","stop_name":"STE-AGATHE","lat":"49.1642692","lon":"6.1538639"},
{"id":"989","stop_id":"0:ARAGO577","stop_name":"FRANCOIS ARAGO","lat":"49.1013771","lon":"6.2242452"},
{"id":"990","stop_id":"0:ARAGO576","stop_name":"FRANCOIS ARAGO","lat":"49.1020845","lon":"6.2240425"},
{"id":"991","stop_id":"0:HERMITE2","stop_name":"HERMITE","lat":"49.1056477","lon":"6.1872728"},
{"id":"992","stop_id":"0:COTSE1","stop_name":"COTEAUX DE LA SEILLE","lat":"49.097984","lon":"6.1888569"},
{"id":"993","stop_id":"0:ROIGE142","stop_name":"ROI GEORGE","lat":"49.1111311","lon":"6.1721761"},
{"id":"994","stop_id":"0:HBOUTAN1","stop_name":"HAUTS DE BOUTAN","lat":"49.0672155","lon":"6.1699005"},
{"id":"995","stop_id":"0:JOSEPH02","stop_name":"CROIX ST JOSEPH","lat":"49.0590228","lon":"6.1594586"},
{"id":"996","stop_id":"0:COINCUV2","stop_name":"COIN-LES-CUVRY","lat":"49.0335355","lon":"6.1551148"},
{"id":"997","stop_id":"0:COINCUV1","stop_name":"COIN-LES-CUVRY","lat":"49.0336019","lon":"6.1553241"},
{"id":"998","stop_id":"0:COTSE2","stop_name":"COTEAUX DE LA SEILLE","lat":"49.0978553","lon":"6.1889586"},
{"id":"999","stop_id":"0:LAQUENY2","stop_name":"LAQUENEXY","lat":"49.0784417","lon":"6.3154094"},
{"id":"1000","stop_id":"0:LAQUENY1","stop_name":"LAQUENEXY","lat":"49.0782829","lon":"6.3159472"},
{"id":"1001","stop_id":"0:SCHWALB1","stop_name":"SCHWALBACH","lat":"49.0792766","lon":"6.0657658"},
{"id":"1002","stop_id":"0:JEANNED2","stop_name":"JEANNE D'ARC","lat":"49.0896435","lon":"6.1536936"},
{"id":"1003","stop_id":"0:SCHWALB2","stop_name":"SCHWALBACH","lat":"49.0793282","lon":"6.0655086"},
{"id":"1004","stop_id":"0:JEANNED1","stop_name":"JEANNE D'ARC","lat":"49.0892827","lon":"6.153384"},
{"id":"1005","stop_id":"0:ALSLORR1","stop_name":"ALSACE-LORRAINE","lat":"49.1215118","lon":"6.1947336"},
{"id":"1006","stop_id":"0:ALSLORR2","stop_name":"ALSACE-LORRAINE","lat":"49.1213053","lon":"6.1953926"},
{"id":"1007","stop_id":"0:RUEDARS1","stop_name":"RUE D'ARS","lat":"49.1120203","lon":"6.0288462"},
{"id":"1008","stop_id":"0:RUEDARS2","stop_name":"RUE D'ARS","lat":"49.1119746","lon":"6.0288709"},
{"id":"1009","stop_id":"0:TORTUE2","stop_name":"TORTUE","lat":"49.1284558","lon":"6.1484335"},
{"id":"1010","stop_id":"0:TORTUE1","stop_name":"TORTUE","lat":"49.1283458","lon":"6.1481663"},
{"id":"1011","stop_id":"0:ARBALET2","stop_name":"ARBALETRIERS","lat":"49.0507714","lon":"6.1870224"},
{"id":"1012","stop_id":"0:MAUJEAN1","stop_name":"MAUJEAN","lat":"49.1203642","lon":"6.2141577"},
{"id":"1013","stop_id":"0:MAUJEAN2","stop_name":"MAUJEAN","lat":"49.1201128","lon":"6.2154856"},
{"id":"1014","stop_id":"0:ROSERAI1","stop_name":"LA ROSERAIE","lat":"49.0976102","lon":"6.0757981"},
{"id":"1015","stop_id":"0:CAILLOU1","stop_name":"CAILLOUX","lat":"49.1348042","lon":"6.1375749"},
{"id":"1016","stop_id":"0:CAILLOU2","stop_name":"CAILLOUX","lat":"49.1344457","lon":"6.1361407"},
{"id":"1017","stop_id":"0:SILOS2","stop_name":"LES SILOS","lat":"49.1407441","lon":"6.1871565"},
{"id":"1018","stop_id":"0:BLORY2","stop_name":"BLORY","lat":"49.0874063","lon":"6.1682718"},
{"id":"1019","stop_id":"0:BLORY1","stop_name":"BLORY","lat":"49.0872465","lon":"6.1668235"},
{"id":"1020","stop_id":"0:MARDIG01","stop_name":"MARDIGNY","lat":"48.9757411","lon":"6.0856844"},